$GPGGA,094011.530,4741.696,N,00916.249,E,1,12,1.0,0.0,M,0.0,M,,*6B
$GPGSA,A,3,01,02,03,04,05,06,07,08,09,10,11,12,1.0,1.0,1.0*30
$GPRMC,094011.530,A,4741.696,N,00916.249,E,013.6,300.7,210618,000.0,W*73
$GPGGA,094012.530,4741.698,N,00916.245,E,1,12,1.0,0.0,M,0.0,M,,*6A
$GPGSA,A,3,01,02,03,04,05,06,07,08,09,10,11,12,1.0,1.0,1.0*30
$GPRMC,094012.530,A,4741.698,N,00916.245,E,013.6,300.7,210618,000.0,W*72
$GPGGA,094013.530,4741.701,N,00916.241,E,1,12,1.0,0.0,M,0.0,M,,*6E
$GPGSA,A,3,01,02,03,04,05,06,07,08,09,10,11,12,1.0,1.0,1.0*30
$GPRMC,094013.530,A,4741.701,N,00916.241,E,013.6,300.7,210618,000.0,W*76
$GPGGA,094014.530,4741.703,N,00916.237,E,1,12,1.0,0.0,M,0.0,M,,*6A
$GPGSA,A,3,01,02,03,04,05,06,07,08,09,10,11,12,1.0,1.0,1.0*30
$GPRMC,094014.530,A,4741.703,N,00916.237,E,010.6,317.1,210618,000.0,W*71
$GPGGA,094015.530,4741.706,N,00916.234,E,1,12,1.0,0.0,M,0.0,M,,*6D
$GPGSA,A,3,01,02,03,04,05,06,07,08,09,10,11,12,1.0,1.0,1.0*30
$GPRMC,094015.530,A,4741.706,N,00916.234,E,013.6,230.8,210618,000.0,W*78
$GPGGA,094016.530,4741.703,N,00916.231,E,1,12,1.0,0.0,M,0.0,M,,*6E
$GPGSA,A,3,01,02,03,04,05,06,07,08,09,10,11,12,1.0,1.0,1.0*30
$GPRMC,094016.530,A,4741.703,N,00916.231,E,013.6,230.8,210618,000.0,W*7B
$GPGGA,094017.530,4741.700,N,00916.227,E,1,12,1.0,0.0,M,0.0,M,,*6B
$GPGSA,A,3,01,02,03,04,05,06,07,08,09,10,11,12,1.0,1.0,1.0*30
$GPRMC,094017.530,A,4741.700,N,00916.227,E,013.6,230.8,210618,000.0,W*7E
$GPGGA,094018.530,4741.697,N,00916.224,E,1,12,1.0,0.0,M,0.0,M,,*68
$GPGSA,A,3,01,02,03,04,05,06,07,08,09,10,11,12,1.0,1.0,1.0*30
$GPRMC,094018.530,A,4741.697,N,00916.224,E,013.6,230.8,210618,000.0,W*7D
$GPGGA,094019.530,4741.694,N,00916.220,E,1,12,1.0,0.0,M,0.0,M,,*6E
$GPGSA,A,3,01,02,03,04,05,06,07,08,09,10,11,12,1.0,1.0,1.0*30
$GPRMC,094019.530,A,4741.694,N,00916.220,E,013.6,241.8,210618,000.0,W*7D
$GPGGA,094020.530,4741.692,N,00916.216,E,1,12,1.0,0.0,M,0.0,M,,*67
$GPGSA,A,3,01,02,03,04,05,06,07,08,09,10,11,12,1.0,1.0,1.0*30
$GPRMC,094020.530,A,4741.692,N,00916.216,E,013.6,241.8,210618,000.0,W*74
$GPGGA,094021.530,4741.689,N,00916.211,E,1,12,1.0,0.0,M,0.0,M,,*6B
$GPGSA,A,3,01,02,03,04,05,06,07,08,09,10,11,12,1.0,1.0,1.0*30
$GPRMC,094021.530,A,4741.689,N,00916.211,E,013.6,241.8,210618,000.0,W*78
$GPGGA,094022.530,4741.687,N,00916.207,E,1,12,1.0,0.0,M,0.0,M,,*61
$GPGSA,A,3,01,02,03,04,05,06,07,08,09,10,11,12,1.0,1.0,1.0*30
$GPRMC,094022.530,A,4741.687,N,00916.207,E,013.6,241.8,210618,000.0,W*72
$GPGGA,094023.530,4741.685,N,00916.202,E,1,12,1.0,0.0,M,0.0,M,,*67
$GPGSA,A,3,01,02,03,04,05,06,07,08,09,10,11,12,1.0,1.0,1.0*30
$GPRMC,094023.530,A,4741.685,N,00916.202,E,013.6,255.0,210618,000.0,W*79
$GPGGA,094024.530,4741.683,N,00916.197,E,1,12,1.0,0.0,M,0.0,M,,*69
$GPGSA,A,3,01,02,03,04,05,06,07,08,09,10,11,12,1.0,1.0,1.0*30
$GPRMC,094024.530,A,4741.683,N,00916.197,E,013.6,255.0,210618,000.0,W*77
$GPGGA,094025.530,4741.682,N,00916.192,E,1,12,1.0,0.0,M,0.0,M,,*6C
$GPGSA,A,3,01,02,03,04,05,06,07,08,09,10,11,12,1.0,1.0,1.0*30
$GPRMC,094025.530,A,4741.682,N,00916.192,E,013.6,255.0,210618,000.0,W*72
$GPGGA,094026.530,4741.681,N,00916.187,E,1,12,1.0,0.0,M,0.0,M,,*68
$GPGSA,A,3,01,02,03,04,05,06,07,08,09,10,11,12,1.0,1.0,1.0*30
$GPRMC,094026.530,A,4741.681,N,00916.187,E,013.6,255.0,210618,000.0,W*76
$GPGGA,094027.530,4741.679,N,00916.182,E,1,12,1.0,0.0,M,0.0,M,,*6B
$GPGSA,A,3,01,02,03,04,05,06,07,08,09,10,11,12,1.0,1.0,1.0*30
$GPRMC,094027.530,A,4741.679,N,00916.182,E,013.6,255.0,210618,000.0,W*75
$GPGGA,094028.530,4741.678,N,00916.176,E,1,12,1.0,0.0,M,0.0,M,,*6E
$GPGSA,A,3,01,02,03,04,05,06,07,08,09,10,11,12,1.0,1.0,1.0*30
$GPRMC,094028.530,A,4741.678,N,00916.176,E,013.6,263.8,210618,000.0,W*7D
$GPGGA,094029.530,4741.677,N,00916.171,E,1,12,1.0,0.0,M,0.0,M,,*67
$GPGSA,A,3,01,02,03,04,05,06,07,08,09,10,11,12,1.0,1.0,1.0*30
$GPRMC,094029.530,A,4741.677,N,00916.171,E,013.6,263.8,210618,000.0,W*74
$GPGGA,094030.530,4741.677,N,00916.165,E,1,12,1.0,0.0,M,0.0,M,,*6A
$GPGSA,A,3,01,02,03,04,05,06,07,08,09,10,11,12,1.0,1.0,1.0*30
$GPRMC,094030.530,A,4741.677,N,00916.165,E,013.6,263.8,210618,000.0,W*79
$GPGGA,094031.530,4741.676,N,00916.160,E,1,12,1.0,0.0,M,0.0,M,,*6F
$GPGSA,A,3,01,02,03,04,05,06,07,08,09,10,11,12,1.0,1.0,1.0*30
$GPRMC,094031.530,A,4741.676,N,00916.160,E,013.6,266.7,210618,000.0,W*76
$GPGGA,094032.530,4741.676,N,00916.154,E,1,12,1.0,0.0,M,0.0,M,,*6B
$GPGSA,A,3,01,02,03,04,05,06,07,08,09,10,11,12,1.0,1.0,1.0*30
$GPRMC,094032.530,A,4741.676,N,00916.154,E,013.6,266.7,210618,000.0,W*72
$GPGGA,094033.530,4741.675,N,00916.149,E,1,12,1.0,0.0,M,0.0,M,,*65
$GPGSA,A,3,01,02,03,04,05,06,07,08,09,10,11,12,1.0,1.0,1.0*30
$GPRMC,094033.530,A,4741.675,N,00916.149,E,013.6,273.1,210618,000.0,W*7E
$GPGGA,094034.530,4741.676,N,00916.143,E,1,12,1.0,0.0,M,0.0,M,,*6B
$GPGSA,A,3,01,02,03,04,05,06,07,08,09,10,11,12,1.0,1.0,1.0*30
$GPRMC,094034.530,A,4741.676,N,00916.143,E,013.6,273.1,210618,000.0,W*70
$GPGGA,094035.530,4741.676,N,00916.137,E,1,12,1.0,0.0,M,0.0,M,,*69
$GPGSA,A,3,01,02,03,04,05,06,07,08,09,10,11,12,1.0,1.0,1.0*30
$GPRMC,094035.530,A,4741.676,N,00916.137,E,013.6,275.2,210618,000.0,W*77
$GPGGA,094036.530,4741.676,N,00916.132,E,1,12,1.0,0.0,M,0.0,M,,*6F
$GPGSA,A,3,01,02,03,04,05,06,07,08,09,10,11,12,1.0,1.0,1.0*30
$GPRMC,094036.530,A,4741.676,N,00916.132,E,013.6,275.2,210618,000.0,W*71
$GPGGA,094037.530,4741.677,N,00916.126,E,1,12,1.0,0.0,M,0.0,M,,*6A
$GPGSA,A,3,01,02,03,04,05,06,07,08,09,10,11,12,1.0,1.0,1.0*30
$GPRMC,094037.530,A,4741.677,N,00916.126,E,013.6,275.2,210618,000.0,W*74
$GPGGA,094038.530,4741.677,N,00916.121,E,1,12,1.0,0.0,M,0.0,M,,*62
$GPGSA,A,3,01,02,03,04,05,06,07,08,09,10,11,12,1.0,1.0,1.0*30
$GPRMC,094038.530,A,4741.677,N,00916.121,E,013.6,284.8,210618,000.0,W*78
$GPGGA,094039.530,4741.679,N,00916.115,E,1,12,1.0,0.0,M,0.0,M,,*6A
$GPGSA,A,3,01,02,03,04,05,06,07,08,09,10,11,12,1.0,1.0,1.0*30
$GPRMC,094039.530,A,4741.679,N,00916.115,E,013.6,284.8,210618,000.0,W*70
$GPGGA,094040.530,4741.680,N,00916.110,E,1,12,1.0,0.0,M,0.0,M,,*67
$GPGSA,A,3,01,02,03,04,05,06,07,08,09,10,11,12,1.0,1.0,1.0*30
$GPRMC,094040.530,A,4741.680,N,00916.110,E,013.6,284.8,210618,000.0,W*7D
$GPGGA,094041.530,4741.681,N,00916.105,E,1,12,1.0,0.0,M,0.0,M,,*63
$GPGSA,A,3,01,02,03,04,05,06,07,08,09,10,11,12,1.0,1.0,1.0*30
$GPRMC,094041.530,A,4741.681,N,00916.105,E,013.6,291.6,210618,000.0,W*73
$GPGGA,094042.530,4741.683,N,00916.100,E,1,12,1.0,0.0,M,0.0,M,,*67
$GPGSA,A,3,01,02,03,04,05,06,07,08,09,10,11,12,1.0,1.0,1.0*30
$GPRMC,094042.530,A,4741.683,N,00916.100,E,013.6,291.6,210618,000.0,W*77
$GPGGA,094043.530,4741.685,N,00916.095,E,1,12,1.0,0.0,M,0.0,M,,*6D
$GPGSA,A,3,01,02,03,04,05,06,07,08,09,10,11,12,1.0,1.0,1.0*30
$GPRMC,094043.530,A,4741.685,N,00916.095,E,013.6,291.6,210618,000.0,W*7D
$GPGGA,094044.530,4741.687,N,00916.091,E,1,12,1.0,0.0,M,0.0,M,,*6C
$GPGSA,A,3,01,02,03,04,05,06,07,08,09,10,11,12,1.0,1.0,1.0*30
$GPRMC,094044.530,A,4741.687,N,00916.091,E,013.6,291.6,210618,000.0,W*7C
$GPGGA,094045.530,4741.689,N,00916.086,E,1,12,1.0,0.0,M,0.0,M,,*65
$GPGSA,A,3,01,02,03,04,05,06,07,08,09,10,11,12,1.0,1.0,1.0*30
$GPRMC,094045.530,A,4741.689,N,00916.086,E,013.6,291.6,210618,000.0,W*75
$GPGGA,094046.530,4741.691,N,00916.081,E,1,12,1.0,0.0,M,0.0,M,,*68
$GPGSA,A,3,01,02,03,04,05,06,07,08,09,10,11,12,1.0,1.0,1.0*30
$GPRMC,094046.530,A,4741.691,N,00916.081,E,013.6,294.7,210618,000.0,W*7C
$GPGGA,094047.530,4741.693,N,00916.076,E,1,12,1.0,0.0,M,0.0,M,,*63
$GPGSA,A,3,01,02,03,04,05,06,07,08,09,10,11,12,1.0,1.0,1.0*30
$GPRMC,094047.530,A,4741.693,N,00916.076,E,013.6,294.7,210618,000.0,W*77
$GPGGA,094048.530,4741.695,N,00916.072,E,1,12,1.0,0.0,M,0.0,M,,*6E
$GPGSA,A,3,01,02,03,04,05,06,07,08,09,10,11,12,1.0,1.0,1.0*30
$GPRMC,094048.530,A,4741.695,N,00916.072,E,013.6,294.7,210618,000.0,W*7A
$GPGGA,094049.530,4741.697,N,00916.067,E,1,12,1.0,0.0,M,0.0,M,,*69
$GPGSA,A,3,01,02,03,04,05,06,07,08,09,10,11,12,1.0,1.0,1.0*30
$GPRMC,094049.530,A,4741.697,N,00916.067,E,013.6,294.7,210618,000.0,W*7D
$GPGGA,094050.530,4741.700,N,00916.062,E,1,12,1.0,0.0,M,0.0,M,,*6B
$GPGSA,A,3,01,02,03,04,05,06,07,08,09,10,11,12,1.0,1.0,1.0*30
$GPRMC,094050.530,A,4741.700,N,00916.062,E,013.6,294.7,210618,000.0,W*7F
$GPGGA,094051.530,4741.702,N,00916.058,E,1,12,1.0,0.0,M,0.0,M,,*61
$GPGSA,A,3,01,02,03,04,05,06,07,08,09,10,11,12,1.0,1.0,1.0*30
$GPRMC,094051.530,A,4741.702,N,00916.058,E,013.6,286.6,210618,000.0,W*77
$GPGGA,094052.530,4741.703,N,00916.052,E,1,12,1.0,0.0,M,0.0,M,,*69
$GPGSA,A,3,01,02,03,04,05,06,07,08,09,10,11,12,1.0,1.0,1.0*30
$GPRMC,094052.530,A,4741.703,N,00916.052,E,013.6,286.6,210618,000.0,W*7F
$GPGGA,094053.530,4741.705,N,00916.047,E,1,12,1.0,0.0,M,0.0,M,,*6A
$GPGSA,A,3,01,02,03,04,05,06,07,08,09,10,11,12,1.0,1.0,1.0*30
$GPRMC,094053.530,A,4741.705,N,00916.047,E,013.6,286.6,210618,000.0,W*7C
$GPGGA,094054.530,4741.706,N,00916.042,E,1,12,1.0,0.0,M,0.0,M,,*6B
$GPGSA,A,3,01,02,03,04,05,06,07,08,09,10,11,12,1.0,1.0,1.0*30
$GPRMC,094054.530,A,4741.706,N,00916.042,E,013.6,286.6,210618,000.0,W*7D
$GPGGA,094055.530,4741.708,N,00916.037,E,1,12,1.0,0.0,M,0.0,M,,*66
$GPGSA,A,3,01,02,03,04,05,06,07,08,09,10,11,12,1.0,1.0,1.0*30
$GPRMC,094055.530,A,4741.708,N,00916.037,E,013.6,286.8,210618,000.0,W*7E
$GPGGA,094056.530,4741.709,N,00916.032,E,1,12,1.0,0.0,M,0.0,M,,*61
$GPGSA,A,3,01,02,03,04,05,06,07,08,09,10,11,12,1.0,1.0,1.0*30
$GPRMC,094056.530,A,4741.709,N,00916.032,E,013.6,286.8,210618,000.0,W*79
$GPGGA,094057.530,4741.711,N,00916.027,E,1,12,1.0,0.0,M,0.0,M,,*6D
$GPGSA,A,3,01,02,03,04,05,06,07,08,09,10,11,12,1.0,1.0,1.0*30
$GPRMC,094057.530,A,4741.711,N,00916.027,E,013.6,286.8,210618,000.0,W*75
$GPGGA,094058.530,4741.712,N,00916.022,E,1,12,1.0,0.0,M,0.0,M,,*64
$GPGSA,A,3,01,02,03,04,05,06,07,08,09,10,11,12,1.0,1.0,1.0*30
$GPRMC,094058.530,A,4741.712,N,00916.022,E,013.6,286.8,210618,000.0,W*7C
$GPGGA,094059.530,4741.714,N,00916.017,E,1,12,1.0,0.0,M,0.0,M,,*65
$GPGSA,A,3,01,02,03,04,05,06,07,08,09,10,11,12,1.0,1.0,1.0*30
$GPRMC,094059.530,A,4741.714,N,00916.017,E,013.6,286.8,210618,000.0,W*7D
$GPGGA,094100.530,4741.715,N,00916.011,E,1,12,1.0,0.0,M,0.0,M,,*6F
$GPGSA,A,3,01,02,03,04,05,06,07,08,09,10,11,12,1.0,1.0,1.0*30
$GPRMC,094100.530,A,4741.715,N,00916.011,E,013.6,288.2,210618,000.0,W*73
$GPGGA,094101.530,4741.717,N,00916.006,E,1,12,1.0,0.0,M,0.0,M,,*6A
$GPGSA,A,3,01,02,03,04,05,06,07,08,09,10,11,12,1.0,1.0,1.0*30
$GPRMC,094101.530,A,4741.717,N,00916.006,E,013.6,288.2,210618,000.0,W*76
$GPGGA,094102.530,4741.719,N,00916.001,E,1,12,1.0,0.0,M,0.0,M,,*60
$GPGSA,A,3,01,02,03,04,05,06,07,08,09,10,11,12,1.0,1.0,1.0*30
$GPRMC,094102.530,A,4741.719,N,00916.001,E,013.6,303.2,210618,000.0,W*7E
$GPGGA,094103.530,4741.721,N,00915.997,E,1,12,1.0,0.0,M,0.0,M,,*6F
$GPGSA,A,3,01,02,03,04,05,06,07,08,09,10,11,12,1.0,1.0,1.0*30
$GPRMC,094103.530,A,4741.721,N,00915.997,E,013.6,303.2,210618,000.0,W*71
$GPGGA,094104.530,4741.724,N,00915.993,E,1,12,1.0,0.0,M,0.0,M,,*69
$GPGSA,A,3,01,02,03,04,05,06,07,08,09,10,11,12,1.0,1.0,1.0*30
$GPRMC,094104.530,A,4741.724,N,00915.993,E,013.6,303.2,210618,000.0,W*77
$GPGGA,094105.530,4741.727,N,00915.989,E,1,12,1.0,0.0,M,0.0,M,,*60
$GPGSA,A,3,01,02,03,04,05,06,07,08,09,10,11,12,1.0,1.0,1.0*30
$GPRMC,094105.530,A,4741.727,N,00915.989,E,013.6,302.3,210618,000.0,W*7E
$GPGGA,094106.530,4741.729,N,00915.985,E,1,12,1.0,0.0,M,0.0,M,,*61
$GPGSA,A,3,01,02,03,04,05,06,07,08,09,10,11,12,1.0,1.0,1.0*30
$GPRMC,094106.530,A,4741.729,N,00915.985,E,013.6,302.3,210618,000.0,W*7F
$GPGGA,094107.530,4741.732,N,00915.981,E,1,12,1.0,0.0,M,0.0,M,,*6E
$GPGSA,A,3,01,02,03,04,05,06,07,08,09,10,11,12,1.0,1.0,1.0*30
$GPRMC,094107.530,A,4741.732,N,00915.981,E,013.6,302.3,210618,000.0,W*70
$GPGGA,094108.530,4741.734,N,00915.977,E,1,12,1.0,0.0,M,0.0,M,,*6E
$GPGSA,A,3,01,02,03,04,05,06,07,08,09,10,11,12,1.0,1.0,1.0*30
$GPRMC,094108.530,A,4741.734,N,00915.977,E,013.6,302.2,210618,000.0,W*71
$GPGGA,094109.530,4741.737,N,00915.973,E,1,12,1.0,0.0,M,0.0,M,,*68
$GPGSA,A,3,01,02,03,04,05,06,07,08,09,10,11,12,1.0,1.0,1.0*30
$GPRMC,094109.530,A,4741.737,N,00915.973,E,013.6,302.2,210618,000.0,W*77
$GPGGA,094110.530,4741.740,N,00915.969,E,1,12,1.0,0.0,M,0.0,M,,*6B
$GPGSA,A,3,01,02,03,04,05,06,07,08,09,10,11,12,1.0,1.0,1.0*30
$GPRMC,094110.530,A,4741.740,N,00915.969,E,013.6,282.7,210618,000.0,W*78
$GPGGA,094111.530,4741.741,N,00915.963,E,1,12,1.0,0.0,M,0.0,M,,*61
$GPGSA,A,3,01,02,03,04,05,06,07,08,09,10,11,12,1.0,1.0,1.0*30
$GPRMC,094111.530,A,4741.741,N,00915.963,E,013.6,270.5,210618,000.0,W*7D
$GPGGA,094112.530,4741.741,N,00915.958,E,1,12,1.0,0.0,M,0.0,M,,*6A
$GPGSA,A,3,01,02,03,04,05,06,07,08,09,10,11,12,1.0,1.0,1.0*30
$GPRMC,094112.530,A,4741.741,N,00915.958,E,013.6,252.1,210618,000.0,W*72
$GPGGA,094113.530,4741.739,N,00915.953,E,1,12,1.0,0.0,M,0.0,M,,*6F
$GPGSA,A,3,01,02,03,04,05,06,07,08,09,10,11,12,1.0,1.0,1.0*30
$GPRMC,094113.530,A,4741.739,N,00915.953,E,013.6,215.0,210618,000.0,W*75
$GPGGA,094114.530,4741.736,N,00915.950,E,1,12,1.0,0.0,M,0.0,M,,*64
$GPGSA,A,3,01,02,03,04,05,06,07,08,09,10,11,12,1.0,1.0,1.0*30
$GPRMC,094114.530,A,4741.736,N,00915.950,E,013.6,193.8,210618,000.0,W*7B
$GPGGA,094115.530,4741.732,N,00915.949,E,1,12,1.0,0.0,M,0.0,M,,*69
$GPGSA,A,3,01,02,03,04,05,06,07,08,09,10,11,12,1.0,1.0,1.0*30
$GPRMC,094115.530,A,4741.732,N,00915.949,E,013.6,154.7,210618,000.0,W*72
$GPGGA,094116.530,4741.728,N,00915.951,E,1,12,1.0,0.0,M,0.0,M,,*68
$GPGSA,A,3,01,02,03,04,05,06,07,08,09,10,11,12,1.0,1.0,1.0*30
$GPRMC,094116.530,A,4741.728,N,00915.951,E,013.6,115.2,210618,000.0,W*73
$GPGGA,094117.530,4741.726,N,00915.956,E,1,12,1.0,0.0,M,0.0,M,,*60
$GPGSA,A,3,01,02,03,04,05,06,07,08,09,10,11,12,1.0,1.0,1.0*30
$GPRMC,094117.530,A,4741.726,N,00915.956,E,013.6,108.8,210618,000.0,W*7D
$GPGGA,094118.530,4741.725,N,00915.961,E,1,12,1.0,0.0,M,0.0,M,,*68
$GPGSA,A,3,01,02,03,04,05,06,07,08,09,10,11,12,1.0,1.0,1.0*30
$GPRMC,094118.530,A,4741.725,N,00915.961,E,013.6,108.8,210618,000.0,W*75
$GPGGA,094119.530,4741.723,N,00915.966,E,1,12,1.0,0.0,M,0.0,M,,*68
$GPGSA,A,3,01,02,03,04,05,06,07,08,09,10,11,12,1.0,1.0,1.0*30
$GPRMC,094119.530,A,4741.723,N,00915.966,E,013.6,108.8,210618,000.0,W*75
$GPGGA,094120.530,4741.721,N,00915.971,E,1,12,1.0,0.0,M,0.0,M,,*66
$GPGSA,A,3,01,02,03,04,05,06,07,08,09,10,11,12,1.0,1.0,1.0*30
$GPRMC,094120.530,A,4741.721,N,00915.971,E,013.6,108.8,210618,000.0,W*7B
$GPGGA,094121.530,4741.719,N,00915.976,E,1,12,1.0,0.0,M,0.0,M,,*6B
$GPGSA,A,3,01,02,03,04,05,06,07,08,09,10,11,12,1.0,1.0,1.0*30
$GPRMC,094121.530,A,4741.719,N,00915.976,E,013.6,110.7,210618,000.0,W*70
$GPGGA,094122.530,4741.718,N,00915.981,E,1,12,1.0,0.0,M,0.0,M,,*61
$GPGSA,A,3,01,02,03,04,05,06,07,08,09,10,11,12,1.0,1.0,1.0*30
$GPRMC,094122.530,A,4741.718,N,00915.981,E,013.6,110.7,210618,000.0,W*7A
$GPGGA,094123.530,4741.716,N,00915.986,E,1,12,1.0,0.0,M,0.0,M,,*69
$GPGSA,A,3,01,02,03,04,05,06,07,08,09,10,11,12,1.0,1.0,1.0*30
$GPRMC,094123.530,A,4741.716,N,00915.986,E,013.6,116.8,210618,000.0,W*7B
$GPGGA,094124.530,4741.714,N,00915.990,E,1,12,1.0,0.0,M,0.0,M,,*6B
$GPGSA,A,3,01,02,03,04,05,06,07,08,09,10,11,12,1.0,1.0,1.0*30
$GPRMC,094124.530,A,4741.714,N,00915.990,E,013.6,116.8,210618,000.0,W*79
$GPGGA,094125.530,4741.711,N,00915.995,E,1,12,1.0,0.0,M,0.0,M,,*6A
$GPGSA,A,3,01,02,03,04,05,06,07,08,09,10,11,12,1.0,1.0,1.0*30
$GPRMC,094125.530,A,4741.711,N,00915.995,E,013.6,116.8,210618,000.0,W*78
$GPGGA,094126.530,4741.709,N,00915.999,E,1,12,1.0,0.0,M,0.0,M,,*6C
$GPGSA,A,3,01,02,03,04,05,06,07,08,09,10,11,12,1.0,1.0,1.0*30
$GPRMC,094126.530,A,4741.709,N,00915.999,E,013.6,116.8,210618,000.0,W*7E
$GPGGA,094127.530,4741.707,N,00916.004,E,1,12,1.0,0.0,M,0.0,M,,*6D
$GPGSA,A,3,01,02,03,04,05,06,07,08,09,10,11,12,1.0,1.0,1.0*30
$GPRMC,094127.530,A,4741.707,N,00916.004,E,013.6,116.8,210618,000.0,W*7F
$GPGGA,094128.530,4741.704,N,00916.008,E,1,12,1.0,0.0,M,0.0,M,,*6D
$GPGSA,A,3,01,02,03,04,05,06,07,08,09,10,11,12,1.0,1.0,1.0*30
$GPRMC,094128.530,A,4741.704,N,00916.008,E,013.6,116.8,210618,000.0,W*7F
$GPGGA,094129.530,4741.702,N,00916.013,E,1,12,1.0,0.0,M,0.0,M,,*60
$GPGSA,A,3,01,02,03,04,05,06,07,08,09,10,11,12,1.0,1.0,1.0*30
$GPRMC,094129.530,A,4741.702,N,00916.013,E,013.6,116.8,210618,000.0,W*72
$GPGGA,094130.530,4741.700,N,00916.017,E,1,12,1.0,0.0,M,0.0,M,,*6E
$GPGSA,A,3,01,02,03,04,05,06,07,08,09,10,11,12,1.0,1.0,1.0*30
$GPRMC,094130.530,A,4741.700,N,00916.017,E,013.6,120.1,210618,000.0,W*70
$GPGGA,094131.530,4741.697,N,00916.021,E,1,12,1.0,0.0,M,0.0,M,,*65
$GPGSA,A,3,01,02,03,04,05,06,07,08,09,10,11,12,1.0,1.0,1.0*30
$GPRMC,094131.530,A,4741.697,N,00916.021,E,013.6,120.1,210618,000.0,W*7B
$GPGGA,094132.530,4741.695,N,00916.026,E,1,12,1.0,0.0,M,0.0,M,,*63
$GPGSA,A,3,01,02,03,04,05,06,07,08,09,10,11,12,1.0,1.0,1.0*30
$GPRMC,094132.530,A,4741.695,N,00916.026,E,013.6,120.1,210618,000.0,W*7D
$GPGGA,094133.530,4741.693,N,00916.030,E,1,12,1.0,0.0,M,0.0,M,,*63
$GPGSA,A,3,01,02,03,04,05,06,07,08,09,10,11,12,1.0,1.0,1.0*30
$GPRMC,094133.530,A,4741.693,N,00916.030,E,013.6,120.1,210618,000.0,W*7D
$GPGGA,094134.530,4741.690,N,00916.034,E,1,12,1.0,0.0,M,0.0,M,,*63
$GPGSA,A,3,01,02,03,04,05,06,07,08,09,10,11,12,1.0,1.0,1.0*30
$GPRMC,094134.530,A,4741.690,N,00916.034,E,013.6,120.1,210618,000.0,W*7D
$GPGGA,094135.530,4741.688,N,00916.038,E,1,12,1.0,0.0,M,0.0,M,,*67
$GPGSA,A,3,01,02,03,04,05,06,07,08,09,10,11,12,1.0,1.0,1.0*30
$GPRMC,094135.530,A,4741.688,N,00916.038,E,013.6,120.1,210618,000.0,W*79
$GPGGA,094136.530,4741.685,N,00916.043,E,1,12,1.0,0.0,M,0.0,M,,*65
$GPGSA,A,3,01,02,03,04,05,06,07,08,09,10,11,12,1.0,1.0,1.0*30
$GPRMC,094136.530,A,4741.685,N,00916.043,E,013.6,120.1,210618,000.0,W*7B
$GPGGA,094137.530,4741.683,N,00916.047,E,1,12,1.0,0.0,M,0.0,M,,*66
$GPGSA,A,3,01,02,03,04,05,06,07,08,09,10,11,12,1.0,1.0,1.0*30
$GPRMC,094137.530,A,4741.683,N,00916.047,E,013.6,120.1,210618,000.0,W*78
$GPGGA,094138.530,4741.680,N,00916.051,E,1,12,1.0,0.0,M,0.0,M,,*6D
$GPGSA,A,3,01,02,03,04,05,06,07,08,09,10,11,12,1.0,1.0,1.0*30
$GPRMC,094138.530,A,4741.680,N,00916.051,E,013.6,120.1,210618,000.0,W*73
$GPGGA,094139.530,4741.678,N,00916.055,E,1,12,1.0,0.0,M,0.0,M,,*6F
$GPGSA,A,3,01,02,03,04,05,06,07,08,09,10,11,12,1.0,1.0,1.0*30
$GPRMC,094139.530,A,4741.678,N,00916.055,E,013.6,120.1,210618,000.0,W*71
$GPGGA,094140.530,4741.675,N,00916.060,E,1,12,1.0,0.0,M,0.0,M,,*6A
$GPGSA,A,3,01,02,03,04,05,06,07,08,09,10,11,12,1.0,1.0,1.0*30
$GPRMC,094140.530,A,4741.675,N,00916.060,E,013.6,120.1,210618,000.0,W*74
$GPGGA,094141.530,4741.673,N,00916.064,E,1,12,1.0,0.0,M,0.0,M,,*69
$GPGSA,A,3,01,02,03,04,05,06,07,08,09,10,11,12,1.0,1.0,1.0*30
$GPRMC,094141.530,A,4741.673,N,00916.064,E,013.6,120.1,210618,000.0,W*77
$GPGGA,094142.530,4741.670,N,00916.068,E,1,12,1.0,0.0,M,0.0,M,,*65
$GPGSA,A,3,01,02,03,04,05,06,07,08,09,10,11,12,1.0,1.0,1.0*30
$GPRMC,094142.530,A,4741.670,N,00916.068,E,013.6,120.1,210618,000.0,W*7B
$GPGGA,094143.530,4741.668,N,00916.072,E,1,12,1.0,0.0,M,0.0,M,,*66
$GPGSA,A,3,01,02,03,04,05,06,07,08,09,10,11,12,1.0,1.0,1.0*30
$GPRMC,094143.530,A,4741.668,N,00916.072,E,013.6,120.1,210618,000.0,W*78
$GPGGA,094144.530,4741.665,N,00916.077,E,1,12,1.0,0.0,M,0.0,M,,*69
$GPGSA,A,3,01,02,03,04,05,06,07,08,09,10,11,12,1.0,1.0,1.0*30
$GPRMC,094144.530,A,4741.665,N,00916.077,E,013.6,120.5,210618,000.0,W*73
$GPGGA,094145.530,4741.663,N,00916.081,E,1,12,1.0,0.0,M,0.0,M,,*67
$GPGSA,A,3,01,02,03,04,05,06,07,08,09,10,11,12,1.0,1.0,1.0*30
$GPRMC,094145.530,A,4741.663,N,00916.081,E,013.6,120.5,210618,000.0,W*7D
$GPGGA,094146.530,4741.660,N,00916.085,E,1,12,1.0,0.0,M,0.0,M,,*63
$GPGSA,A,3,01,02,03,04,05,06,07,08,09,10,11,12,1.0,1.0,1.0*30
$GPRMC,094146.530,A,4741.660,N,00916.085,E,013.6,120.5,210618,000.0,W*79
$GPGGA,094147.530,4741.658,N,00916.089,E,1,12,1.0,0.0,M,0.0,M,,*65
$GPGSA,A,3,01,02,03,04,05,06,07,08,09,10,11,12,1.0,1.0,1.0*30
$GPRMC,094147.530,A,4741.658,N,00916.089,E,013.6,120.5,210618,000.0,W*7F
$GPGGA,094148.530,4741.656,N,00916.094,E,1,12,1.0,0.0,M,0.0,M,,*68
$GPGSA,A,3,01,02,03,04,05,06,07,08,09,10,11,12,1.0,1.0,1.0*30
$GPRMC,094148.530,A,4741.656,N,00916.094,E,013.6,120.5,210618,000.0,W*72
$GPGGA,094149.530,4741.653,N,00916.098,E,1,12,1.0,0.0,M,0.0,M,,*60
$GPGSA,A,3,01,02,03,04,05,06,07,08,09,10,11,12,1.0,1.0,1.0*30
$GPRMC,094149.530,A,4741.653,N,00916.098,E,013.6,120.5,210618,000.0,W*7A
$GPGGA,094150.530,4741.651,N,00916.102,E,1,12,1.0,0.0,M,0.0,M,,*68
$GPGSA,A,3,01,02,03,04,05,06,07,08,09,10,11,12,1.0,1.0,1.0*30
$GPRMC,094150.530,A,4741.651,N,00916.102,E,013.6,133.5,210618,000.0,W*70
$GPGGA,094151.530,4741.648,N,00916.105,E,1,12,1.0,0.0,M,0.0,M,,*66
$GPGSA,A,3,01,02,03,04,05,06,07,08,09,10,11,12,1.0,1.0,1.0*30
$GPRMC,094151.530,A,4741.648,N,00916.105,E,013.6,161.2,210618,000.0,W*7E
$GPGGA,094152.530,4741.644,N,00916.107,E,1,12,1.0,0.0,M,0.0,M,,*6B
$GPGSA,A,3,01,02,03,04,05,06,07,08,09,10,11,12,1.0,1.0,1.0*30
$GPRMC,094152.530,A,4741.644,N,00916.107,E,013.6,188.1,210618,000.0,W*77
$GPGGA,094153.530,4741.640,N,00916.106,E,1,12,1.0,0.0,M,0.0,M,,*6F
$GPGSA,A,3,01,02,03,04,05,06,07,08,09,10,11,12,1.0,1.0,1.0*30
$GPRMC,094153.530,A,4741.640,N,00916.106,E,013.6,227.9,210618,000.0,W*7D
$GPGGA,094154.530,4741.637,N,00916.103,E,1,12,1.0,0.0,M,0.0,M,,*6D
$GPGSA,A,3,01,02,03,04,05,06,07,08,09,10,11,12,1.0,1.0,1.0*30
$GPRMC,094154.530,A,4741.637,N,00916.103,E,013.6,255.5,210618,000.0,W*76
$GPGGA,094155.530,4741.636,N,00916.097,E,1,12,1.0,0.0,M,0.0,M,,*61
$GPGSA,A,3,01,02,03,04,05,06,07,08,09,10,11,12,1.0,1.0,1.0*30
$GPRMC,094155.530,A,4741.636,N,00916.097,E,013.6,262.0,210618,000.0,W*7B
$GPGGA,094156.530,4741.635,N,00916.092,E,1,12,1.0,0.0,M,0.0,M,,*64
$GPGSA,A,3,01,02,03,04,05,06,07,08,09,10,11,12,1.0,1.0,1.0*30
$GPRMC,094156.530,A,4741.635,N,00916.092,E,013.6,275.7,210618,000.0,W*7F
$GPGGA,094157.530,4741.635,N,00916.086,E,1,12,1.0,0.0,M,0.0,M,,*60
$GPGSA,A,3,01,02,03,04,05,06,07,08,09,10,11,12,1.0,1.0,1.0*30
$GPRMC,094157.530,A,4741.635,N,00916.086,E,013.6,275.7,210618,000.0,W*7B
$GPGGA,094158.530,4741.636,N,00916.081,E,1,12,1.0,0.0,M,0.0,M,,*6B
$GPGSA,A,3,01,02,03,04,05,06,07,08,09,10,11,12,1.0,1.0,1.0*30
$GPRMC,094158.530,A,4741.636,N,00916.081,E,013.6,275.7,210618,000.0,W*70
$GPGGA,094159.530,4741.637,N,00916.075,E,1,12,1.0,0.0,M,0.0,M,,*60
$GPGSA,A,3,01,02,03,04,05,06,07,08,09,10,11,12,1.0,1.0,1.0*30
$GPRMC,094159.530,A,4741.637,N,00916.075,E,013.6,275.7,210618,000.0,W*7B
$GPGGA,094200.530,4741.637,N,00916.070,E,1,12,1.0,0.0,M,0.0,M,,*6A
$GPGSA,A,3,01,02,03,04,05,06,07,08,09,10,11,12,1.0,1.0,1.0*30
$GPRMC,094200.530,A,4741.637,N,00916.070,E,013.6,275.7,210618,000.0,W*71
$GPGGA,094201.530,4741.638,N,00916.064,E,1,12,1.0,0.0,M,0.0,M,,*61
$GPGSA,A,3,01,02,03,04,05,06,07,08,09,10,11,12,1.0,1.0,1.0*30
$GPRMC,094201.530,A,4741.638,N,00916.064,E,013.6,275.7,210618,000.0,W*7A
$GPGGA,094202.530,4741.638,N,00916.059,E,1,12,1.0,0.0,M,0.0,M,,*6C
$GPGSA,A,3,01,02,03,04,05,06,07,08,09,10,11,12,1.0,1.0,1.0*30
$GPRMC,094202.530,A,4741.638,N,00916.059,E,013.6,275.7,210618,000.0,W*77
$GPGGA,094203.530,4741.639,N,00916.053,E,1,12,1.0,0.0,M,0.0,M,,*66
$GPGSA,A,3,01,02,03,04,05,06,07,08,09,10,11,12,1.0,1.0,1.0*30
$GPRMC,094203.530,A,4741.639,N,00916.053,E,013.6,275.7,210618,000.0,W*7D
$GPGGA,094204.530,4741.639,N,00916.048,E,1,12,1.0,0.0,M,0.0,M,,*6B
$GPGSA,A,3,01,02,03,04,05,06,07,08,09,10,11,12,1.0,1.0,1.0*30
$GPRMC,094204.530,A,4741.639,N,00916.048,E,013.6,275.7,210618,000.0,W*70
$GPGGA,094205.530,4741.640,N,00916.042,E,1,12,1.0,0.0,M,0.0,M,,*6E
$GPGSA,A,3,01,02,03,04,05,06,07,08,09,10,11,12,1.0,1.0,1.0*30
$GPRMC,094205.530,A,4741.640,N,00916.042,E,013.6,275.7,210618,000.0,W*75
$GPGGA,094206.530,4741.640,N,00916.036,E,1,12,1.0,0.0,M,0.0,M,,*6E
$GPGSA,A,3,01,02,03,04,05,06,07,08,09,10,11,12,1.0,1.0,1.0*30
$GPRMC,094206.530,A,4741.640,N,00916.036,E,013.6,275.7,210618,000.0,W*75
$GPGGA,094207.530,4741.641,N,00916.031,E,1,12,1.0,0.0,M,0.0,M,,*69
$GPGSA,A,3,01,02,03,04,05,06,07,08,09,10,11,12,1.0,1.0,1.0*30
$GPRMC,094207.530,A,4741.641,N,00916.031,E,013.6,275.7,210618,000.0,W*72
$GPGGA,094208.530,4741.642,N,00916.025,E,1,12,1.0,0.0,M,0.0,M,,*60
$GPGSA,A,3,01,02,03,04,05,06,07,08,09,10,11,12,1.0,1.0,1.0*30
$GPRMC,094208.530,A,4741.642,N,00916.025,E,013.6,275.7,210618,000.0,W*7B
$GPGGA,094209.530,4741.642,N,00916.020,E,1,12,1.0,0.0,M,0.0,M,,*64
$GPGSA,A,3,01,02,03,04,05,06,07,08,09,10,11,12,1.0,1.0,1.0*30
$GPRMC,094209.530,A,4741.642,N,00916.020,E,013.6,275.7,210618,000.0,W*7F
$GPGGA,094210.530,4741.643,N,00916.014,E,1,12,1.0,0.0,M,0.0,M,,*6A
$GPGSA,A,3,01,02,03,04,05,06,07,08,09,10,11,12,1.0,1.0,1.0*30
$GPRMC,094210.530,A,4741.643,N,00916.014,E,013.6,275.7,210618,000.0,W*71
$GPGGA,094211.530,4741.643,N,00916.009,E,1,12,1.0,0.0,M,0.0,M,,*67
$GPGSA,A,3,01,02,03,04,05,06,07,08,09,10,11,12,1.0,1.0,1.0*30
$GPRMC,094211.530,A,4741.643,N,00916.009,E,013.6,275.7,210618,000.0,W*7C
$GPGGA,094212.530,4741.644,N,00916.003,E,1,12,1.0,0.0,M,0.0,M,,*69
$GPGSA,A,3,01,02,03,04,05,06,07,08,09,10,11,12,1.0,1.0,1.0*30
$GPRMC,094212.530,A,4741.644,N,00916.003,E,013.6,275.7,210618,000.0,W*72
$GPGGA,094213.530,4741.644,N,00915.998,E,1,12,1.0,0.0,M,0.0,M,,*60
$GPGSA,A,3,01,02,03,04,05,06,07,08,09,10,11,12,1.0,1.0,1.0*30
$GPRMC,094213.530,A,4741.644,N,00915.998,E,013.6,275.7,210618,000.0,W*7B
$GPGGA,094214.530,4741.645,N,00915.992,E,1,12,1.0,0.0,M,0.0,M,,*6C
$GPGSA,A,3,01,02,03,04,05,06,07,08,09,10,11,12,1.0,1.0,1.0*30
$GPRMC,094214.530,A,4741.645,N,00915.992,E,013.6,275.7,210618,000.0,W*77
$GPGGA,094215.530,4741.645,N,00915.986,E,1,12,1.0,0.0,M,0.0,M,,*68
$GPGSA,A,3,01,02,03,04,05,06,07,08,09,10,11,12,1.0,1.0,1.0*30
$GPRMC,094215.530,A,4741.645,N,00915.986,E,013.6,275.7,210618,000.0,W*73
$GPGGA,094216.530,4741.646,N,00915.981,E,1,12,1.0,0.0,M,0.0,M,,*6F
$GPGSA,A,3,01,02,03,04,05,06,07,08,09,10,11,12,1.0,1.0,1.0*30
$GPRMC,094216.530,A,4741.646,N,00915.981,E,013.6,275.5,210618,000.0,W*76
$GPGGA,094217.530,4741.646,N,00915.975,E,1,12,1.0,0.0,M,0.0,M,,*65
$GPGSA,A,3,01,02,03,04,05,06,07,08,09,10,11,12,1.0,1.0,1.0*30
$GPRMC,094217.530,A,4741.646,N,00915.975,E,013.6,275.5,210618,000.0,W*7C
$GPGGA,094218.530,4741.647,N,00915.970,E,1,12,1.0,0.0,M,0.0,M,,*6E
$GPGSA,A,3,01,02,03,04,05,06,07,08,09,10,11,12,1.0,1.0,1.0*30
$GPRMC,094218.530,A,4741.647,N,00915.970,E,013.6,275.5,210618,000.0,W*77
$GPGGA,094219.530,4741.648,N,00915.964,E,1,12,1.0,0.0,M,0.0,M,,*65
$GPGSA,A,3,01,02,03,04,05,06,07,08,09,10,11,12,1.0,1.0,1.0*30
$GPRMC,094219.530,A,4741.648,N,00915.964,E,013.6,283.2,210618,000.0,W*72
$GPGGA,094220.530,4741.649,N,00915.959,E,1,12,1.0,0.0,M,0.0,M,,*60
$GPGSA,A,3,01,02,03,04,05,06,07,08,09,10,11,12,1.0,1.0,1.0*30
$GPRMC,094220.530,A,4741.649,N,00915.959,E,013.6,283.2,210618,000.0,W*77
$GPGGA,094221.530,4741.650,N,00915.954,E,1,12,1.0,0.0,M,0.0,M,,*64
$GPGSA,A,3,01,02,03,04,05,06,07,08,09,10,11,12,1.0,1.0,1.0*30
$GPRMC,094221.530,A,4741.650,N,00915.954,E,013.6,283.2,210618,000.0,W*73
$GPGGA,094222.530,4741.651,N,00915.948,E,1,12,1.0,0.0,M,0.0,M,,*6B
$GPGSA,A,3,01,02,03,04,05,06,07,08,09,10,11,12,1.0,1.0,1.0*30
$GPRMC,094222.530,A,4741.651,N,00915.948,E,013.6,306.7,210618,000.0,W*75
$GPGGA,094223.530,4741.654,N,00915.945,E,1,12,1.0,0.0,M,0.0,M,,*62
$GPGSA,A,3,01,02,03,04,05,06,07,08,09,10,11,12,1.0,1.0,1.0*30
$GPRMC,094223.530,A,4741.654,N,00915.945,E,013.6,047.5,210618,000.0,W*78
$GPGGA,094224.530,4741.657,N,00915.948,E,1,12,1.0,0.0,M,0.0,M,,*6B
$GPGSA,A,3,01,02,03,04,05,06,07,08,09,10,11,12,1.0,1.0,1.0*30
$GPRMC,094224.530,A,4741.657,N,00915.948,E,013.6,035.0,210618,000.0,W*71
$GPGGA,094225.530,4741.661,N,00915.950,E,1,12,1.0,0.0,M,0.0,M,,*66
$GPGSA,A,3,01,02,03,04,05,06,07,08,09,10,11,12,1.0,1.0,1.0*30
$GPRMC,094225.530,A,4741.661,N,00915.950,E,013.6,320.7,210618,000.0,W*7C
$GPGGA,094226.530,4741.664,N,00915.948,E,1,12,1.0,0.0,M,0.0,M,,*69
$GPGSA,A,3,01,02,03,04,05,06,07,08,09,10,11,12,1.0,1.0,1.0*30
$GPRMC,094226.530,A,4741.664,N,00915.948,E,013.6,301.3,210618,000.0,W*74
$GPGGA,094227.530,4741.666,N,00915.943,E,1,12,1.0,0.0,M,0.0,M,,*61
$GPGSA,A,3,01,02,03,04,05,06,07,08,09,10,11,12,1.0,1.0,1.0*30
$GPRMC,094227.530,A,4741.666,N,00915.943,E,013.6,301.3,210618,000.0,W*7C
$GPGGA,094228.530,4741.669,N,00915.939,E,1,12,1.0,0.0,M,0.0,M,,*6C
$GPGSA,A,3,01,02,03,04,05,06,07,08,09,10,11,12,1.0,1.0,1.0*30
$GPRMC,094228.530,A,4741.669,N,00915.939,E,013.6,301.3,210618,000.0,W*71
$GPGGA,094229.530,4741.671,N,00915.935,E,1,12,1.0,0.0,M,0.0,M,,*68
$GPGSA,A,3,01,02,03,04,05,06,07,08,09,10,11,12,1.0,1.0,1.0*30
$GPRMC,094229.530,A,4741.671,N,00915.935,E,013.6,301.3,210618,000.0,W*75
$GPGGA,094230.530,4741.674,N,00915.931,E,1,12,1.0,0.0,M,0.0,M,,*61
$GPGSA,A,3,01,02,03,04,05,06,07,08,09,10,11,12,1.0,1.0,1.0*30
$GPRMC,094230.530,A,4741.674,N,00915.931,E,013.6,301.3,210618,000.0,W*7C
$GPGGA,094231.530,4741.676,N,00915.927,E,1,12,1.0,0.0,M,0.0,M,,*65
$GPGSA,A,3,01,02,03,04,05,06,07,08,09,10,11,12,1.0,1.0,1.0*30
$GPRMC,094231.530,A,4741.676,N,00915.927,E,013.6,301.3,210618,000.0,W*78
$GPGGA,094232.530,4741.679,N,00915.923,E,1,12,1.0,0.0,M,0.0,M,,*6D
$GPGSA,A,3,01,02,03,04,05,06,07,08,09,10,11,12,1.0,1.0,1.0*30
$GPRMC,094232.530,A,4741.679,N,00915.923,E,013.6,301.3,210618,000.0,W*70
$GPGGA,094233.530,4741.682,N,00915.918,E,1,12,1.0,0.0,M,0.0,M,,*60
$GPGSA,A,3,01,02,03,04,05,06,07,08,09,10,11,12,1.0,1.0,1.0*30
$GPRMC,094233.530,A,4741.682,N,00915.918,E,013.6,301.3,210618,000.0,W*7D
$GPGGA,094234.530,4741.684,N,00915.914,E,1,12,1.0,0.0,M,0.0,M,,*6D
$GPGSA,A,3,01,02,03,04,05,06,07,08,09,10,11,12,1.0,1.0,1.0*30
$GPRMC,094234.530,A,4741.684,N,00915.914,E,013.6,301.3,210618,000.0,W*70
$GPGGA,094235.530,4741.687,N,00915.910,E,1,12,1.0,0.0,M,0.0,M,,*6B
$GPGSA,A,3,01,02,03,04,05,06,07,08,09,10,11,12,1.0,1.0,1.0*30
$GPRMC,094235.530,A,4741.687,N,00915.910,E,013.6,301.3,210618,000.0,W*76
$GPGGA,094236.530,4741.689,N,00915.906,E,1,12,1.0,0.0,M,0.0,M,,*61
$GPGSA,A,3,01,02,03,04,05,06,07,08,09,10,11,12,1.0,1.0,1.0*30
$GPRMC,094236.530,A,4741.689,N,00915.906,E,013.6,264.1,210618,000.0,W*7C
$GPGGA,094237.530,4741.689,N,00915.900,E,1,12,1.0,0.0,M,0.0,M,,*66
$GPGSA,A,3,01,02,03,04,05,06,07,08,09,10,11,12,1.0,1.0,1.0*30
$GPRMC,094237.530,A,4741.689,N,00915.900,E,013.6,248.8,210618,000.0,W*7C
$GPGGA,094238.530,4741.687,N,00915.895,E,1,12,1.0,0.0,M,0.0,M,,*6A
$GPGSA,A,3,01,02,03,04,05,06,07,08,09,10,11,12,1.0,1.0,1.0*30
$GPRMC,094238.530,A,4741.687,N,00915.895,E,013.6,290.3,210618,000.0,W*7E
$GPGGA,094239.530,4741.688,N,00915.891,E,1,12,1.0,0.0,M,0.0,M,,*60
$GPGSA,A,3,01,02,03,04,05,06,07,08,09,10,11,12,1.0,1.0,1.0*30
$GPRMC,094239.530,A,4741.688,N,00915.891,E,013.6,298.0,210618,000.0,W*7F
$GPGGA,094240.530,4741.691,N,00915.886,E,1,12,1.0,0.0,M,0.0,M,,*60
$GPGSA,A,3,01,02,03,04,05,06,07,08,09,10,11,12,1.0,1.0,1.0*30
$GPRMC,094240.530,A,4741.691,N,00915.886,E,013.6,298.0,210618,000.0,W*7F
$GPGGA,094241.530,4741.693,N,00915.882,E,1,12,1.0,0.0,M,0.0,M,,*67
$GPGSA,A,3,01,02,03,04,05,06,07,08,09,10,11,12,1.0,1.0,1.0*30
$GPRMC,094241.530,A,4741.693,N,00915.882,E,013.6,298.0,210618,000.0,W*78
$GPGGA,094242.530,4741.695,N,00915.877,E,1,12,1.0,0.0,M,0.0,M,,*68
$GPGSA,A,3,01,02,03,04,05,06,07,08,09,10,11,12,1.0,1.0,1.0*30
$GPRMC,094242.530,A,4741.695,N,00915.877,E,013.6,300.3,210618,000.0,W*74
$GPGGA,094243.530,4741.698,N,00915.873,E,1,12,1.0,0.0,M,0.0,M,,*60
$GPGSA,A,3,01,02,03,04,05,06,07,08,09,10,11,12,1.0,1.0,1.0*30
$GPRMC,094243.530,A,4741.698,N,00915.873,E,013.6,300.3,210618,000.0,W*7C
$GPGGA,094244.530,4741.700,N,00915.869,E,1,12,1.0,0.0,M,0.0,M,,*6C
$GPGSA,A,3,01,02,03,04,05,06,07,08,09,10,11,12,1.0,1.0,1.0*30
$GPRMC,094244.530,A,4741.700,N,00915.869,E,013.6,300.3,210618,000.0,W*70
$GPGGA,094245.530,4741.703,N,00915.865,E,1,12,1.0,0.0,M,0.0,M,,*62
$GPGSA,A,3,01,02,03,04,05,06,07,08,09,10,11,12,1.0,1.0,1.0*30
$GPRMC,094245.530,A,4741.703,N,00915.865,E,005.8,296.2,210618,000.0,W*78
$GPGGA,094246.530,4741.704,N,00915.863,E,1,12,1.0,0.0,M,0.0,M,,*60
$GPGSA,A,3,01,02,03,04,05,06,07,08,09,10,11,12,1.0,1.0,1.0*30
$GPRMC,094246.530,A,4741.704,N,00915.863,E,005.8,296.2,210618,000.0,W*7A
$GPGGA,094247.530,4741.705,N,00915.861,E,1,12,1.0,0.0,M,0.0,M,,*62
$GPGSA,A,3,01,02,03,04,05,06,07,08,09,10,11,12,1.0,1.0,1.0*30
$GPRMC,094247.530,A,4741.705,N,00915.861,E,005.8,296.2,210618,000.0,W*78
$GPGGA,094248.530,4741.706,N,00915.859,E,1,12,1.0,0.0,M,0.0,M,,*65
$GPGSA,A,3,01,02,03,04,05,06,07,08,09,10,11,12,1.0,1.0,1.0*30
$GPRMC,094248.530,A,4741.706,N,00915.859,E,005.8,296.2,210618,000.0,W*7F
$GPGGA,094249.530,4741.707,N,00915.857,E,1,12,1.0,0.0,M,0.0,M,,*6B
$GPGSA,A,3,01,02,03,04,05,06,07,08,09,10,11,12,1.0,1.0,1.0*30
$GPRMC,094249.530,A,4741.707,N,00915.857,E,005.8,296.2,210618,000.0,W*71
$GPGGA,094250.530,4741.708,N,00915.855,E,1,12,1.0,0.0,M,0.0,M,,*6E
$GPGSA,A,3,01,02,03,04,05,06,07,08,09,10,11,12,1.0,1.0,1.0*30
$GPRMC,094250.530,A,4741.708,N,00915.855,E,005.8,296.2,210618,000.0,W*74
$GPGGA,094251.530,4741.709,N,00915.853,E,1,12,1.0,0.0,M,0.0,M,,*68
$GPGSA,A,3,01,02,03,04,05,06,07,08,09,10,11,12,1.0,1.0,1.0*30
$GPRMC,094251.530,A,4741.709,N,00915.853,E,005.8,296.2,210618,000.0,W*72
$GPGGA,094252.530,4741.710,N,00915.851,E,1,12,1.0,0.0,M,0.0,M,,*61
$GPGSA,A,3,01,02,03,04,05,06,07,08,09,10,11,12,1.0,1.0,1.0*30
$GPRMC,094252.530,A,4741.710,N,00915.851,E,005.8,296.2,210618,000.0,W*7B
$GPGGA,094253.530,4741.710,N,00915.849,E,1,12,1.0,0.0,M,0.0,M,,*69
$GPGSA,A,3,01,02,03,04,05,06,07,08,09,10,11,12,1.0,1.0,1.0*30
$GPRMC,094253.530,A,4741.710,N,00915.849,E,005.8,296.2,210618,000.0,W*73
$GPGGA,094254.530,4741.711,N,00915.847,E,1,12,1.0,0.0,M,0.0,M,,*61
$GPGSA,A,3,01,02,03,04,05,06,07,08,09,10,11,12,1.0,1.0,1.0*30
$GPRMC,094254.530,A,4741.711,N,00915.847,E,005.8,296.2,210618,000.0,W*7B
$GPGGA,094255.530,4741.712,N,00915.845,E,1,12,1.0,0.0,M,0.0,M,,*61
$GPGSA,A,3,01,02,03,04,05,06,07,08,09,10,11,12,1.0,1.0,1.0*30
$GPRMC,094255.530,A,4741.712,N,00915.845,E,005.8,296.2,210618,000.0,W*7B
$GPGGA,094256.530,4741.713,N,00915.843,E,1,12,1.0,0.0,M,0.0,M,,*65
$GPGSA,A,3,01,02,03,04,05,06,07,08,09,10,11,12,1.0,1.0,1.0*30
$GPRMC,094256.530,A,4741.713,N,00915.843,E,005.8,296.2,210618,000.0,W*7F
$GPGGA,094257.530,4741.714,N,00915.841,E,1,12,1.0,0.0,M,0.0,M,,*61
$GPGSA,A,3,01,02,03,04,05,06,07,08,09,10,11,12,1.0,1.0,1.0*30
$GPRMC,094257.530,A,4741.714,N,00915.841,E,005.8,296.2,210618,000.0,W*7B
$GPGGA,094258.530,4741.715,N,00915.839,E,1,12,1.0,0.0,M,0.0,M,,*60
$GPGSA,A,3,01,02,03,04,05,06,07,08,09,10,11,12,1.0,1.0,1.0*30
$GPRMC,094258.530,A,4741.715,N,00915.839,E,005.8,296.2,210618,000.0,W*7A
$GPGGA,094259.530,4741.716,N,00915.837,E,1,12,1.0,0.0,M,0.0,M,,*6C
$GPGSA,A,3,01,02,03,04,05,06,07,08,09,10,11,12,1.0,1.0,1.0*30
$GPRMC,094259.530,A,4741.716,N,00915.837,E,005.8,296.2,210618,000.0,W*76
$GPGGA,094300.530,4741.717,N,00915.835,E,1,12,1.0,0.0,M,0.0,M,,*62
$GPGSA,A,3,01,02,03,04,05,06,07,08,09,10,11,12,1.0,1.0,1.0*30
$GPRMC,094300.530,A,4741.717,N,00915.835,E,005.8,296.2,210618,000.0,W*78
$GPGGA,094301.530,4741.718,N,00915.833,E,1,12,1.0,0.0,M,0.0,M,,*6A
$GPGSA,A,3,01,02,03,04,05,06,07,08,09,10,11,12,1.0,1.0,1.0*30
$GPRMC,094301.530,A,4741.718,N,00915.833,E,005.8,296.2,210618,000.0,W*70
$GPGGA,094302.530,4741.719,N,00915.832,E,1,12,1.0,0.0,M,0.0,M,,*69
$GPGSA,A,3,01,02,03,04,05,06,07,08,09,10,11,12,1.0,1.0,1.0*30
$GPRMC,094302.530,A,4741.719,N,00915.832,E,005.8,296.2,210618,000.0,W*73
$GPGGA,094303.530,4741.720,N,00915.830,E,1,12,1.0,0.0,M,0.0,M,,*60
$GPGSA,A,3,01,02,03,04,05,06,07,08,09,10,11,12,1.0,1.0,1.0*30
$GPRMC,094303.530,A,4741.720,N,00915.830,E,005.8,296.2,210618,000.0,W*7A
$GPGGA,094304.530,4741.721,N,00915.828,E,1,12,1.0,0.0,M,0.0,M,,*6F
$GPGSA,A,3,01,02,03,04,05,06,07,08,09,10,11,12,1.0,1.0,1.0*30
$GPRMC,094304.530,A,4741.721,N,00915.828,E,005.8,296.2,210618,000.0,W*75
$GPGGA,094305.530,4741.722,N,00915.826,E,1,12,1.0,0.0,M,0.0,M,,*63
$GPGSA,A,3,01,02,03,04,05,06,07,08,09,10,11,12,1.0,1.0,1.0*30
$GPRMC,094305.530,A,4741.722,N,00915.826,E,005.8,296.2,210618,000.0,W*79
$GPGGA,094306.530,4741.723,N,00915.824,E,1,12,1.0,0.0,M,0.0,M,,*63
$GPGSA,A,3,01,02,03,04,05,06,07,08,09,10,11,12,1.0,1.0,1.0*30
$GPRMC,094306.530,A,4741.723,N,00915.824,E,005.8,256.3,210618,000.0,W*74
$GPGGA,094307.530,4741.722,N,00915.821,E,1,12,1.0,0.0,M,0.0,M,,*66
$GPGSA,A,3,01,02,03,04,05,06,07,08,09,10,11,12,1.0,1.0,1.0*30
$GPRMC,094307.530,A,4741.722,N,00915.821,E,005.8,256.3,210618,000.0,W*71
$GPGGA,094308.530,4741.722,N,00915.819,E,1,12,1.0,0.0,M,0.0,M,,*62
$GPGSA,A,3,01,02,03,04,05,06,07,08,09,10,11,12,1.0,1.0,1.0*30
$GPRMC,094308.530,A,4741.722,N,00915.819,E,005.8,256.3,210618,000.0,W*75
$GPGGA,094309.530,4741.721,N,00915.817,E,1,12,1.0,0.0,M,0.0,M,,*6E
$GPGSA,A,3,01,02,03,04,05,06,07,08,09,10,11,12,1.0,1.0,1.0*30
$GPRMC,094309.530,A,4741.721,N,00915.817,E,005.8,256.3,210618,000.0,W*79
$GPGGA,094310.530,4741.721,N,00915.815,E,1,12,1.0,0.0,M,0.0,M,,*64
$GPGSA,A,3,01,02,03,04,05,06,07,08,09,10,11,12,1.0,1.0,1.0*30
$GPRMC,094310.530,A,4741.721,N,00915.815,E,005.8,256.3,210618,000.0,W*73
$GPGGA,094311.530,4741.720,N,00915.812,E,1,12,1.0,0.0,M,0.0,M,,*63
$GPGSA,A,3,01,02,03,04,05,06,07,08,09,10,11,12,1.0,1.0,1.0*30
$GPRMC,094311.530,A,4741.720,N,00915.812,E,005.8,256.3,210618,000.0,W*74
$GPGGA,094312.530,4741.720,N,00915.810,E,1,12,1.0,0.0,M,0.0,M,,*62
$GPGSA,A,3,01,02,03,04,05,06,07,08,09,10,11,12,1.0,1.0,1.0*30
$GPRMC,094312.530,A,4741.720,N,00915.810,E,005.8,256.3,210618,000.0,W*75
$GPGGA,094313.530,4741.719,N,00915.808,E,1,12,1.0,0.0,M,0.0,M,,*60
$GPGSA,A,3,01,02,03,04,05,06,07,08,09,10,11,12,1.0,1.0,1.0*30
$GPRMC,094313.530,A,4741.719,N,00915.808,E,005.8,256.3,210618,000.0,W*77
$GPGGA,094314.530,4741.718,N,00915.806,E,1,12,1.0,0.0,M,0.0,M,,*68
$GPGSA,A,3,01,02,03,04,05,06,07,08,09,10,11,12,1.0,1.0,1.0*30
$GPRMC,094314.530,A,4741.718,N,00915.806,E,005.8,256.3,210618,000.0,W*7F
$GPGGA,094315.530,4741.718,N,00915.803,E,1,12,1.0,0.0,M,0.0,M,,*6C
$GPGSA,A,3,01,02,03,04,05,06,07,08,09,10,11,12,1.0,1.0,1.0*30
$GPRMC,094315.530,A,4741.718,N,00915.803,E,005.8,256.3,210618,000.0,W*7B
$GPGGA,094316.530,4741.717,N,00915.801,E,1,12,1.0,0.0,M,0.0,M,,*62
$GPGSA,A,3,01,02,03,04,05,06,07,08,09,10,11,12,1.0,1.0,1.0*30
$GPRMC,094316.530,A,4741.717,N,00915.801,E,005.8,256.3,210618,000.0,W*75
$GPGGA,094317.530,4741.717,N,00915.799,E,1,12,1.0,0.0,M,0.0,M,,*6D
$GPGSA,A,3,01,02,03,04,05,06,07,08,09,10,11,12,1.0,1.0,1.0*30
$GPRMC,094317.530,A,4741.717,N,00915.799,E,005.8,256.3,210618,000.0,W*7A
$GPGGA,094318.530,4741.716,N,00915.797,E,1,12,1.0,0.0,M,0.0,M,,*6D
$GPGSA,A,3,01,02,03,04,05,06,07,08,09,10,11,12,1.0,1.0,1.0*30
$GPRMC,094318.530,A,4741.716,N,00915.797,E,005.8,256.3,210618,000.0,W*7A
$GPGGA,094319.530,4741.716,N,00915.794,E,1,12,1.0,0.0,M,0.0,M,,*6F
$GPGSA,A,3,01,02,03,04,05,06,07,08,09,10,11,12,1.0,1.0,1.0*30
$GPRMC,094319.530,A,4741.716,N,00915.794,E,005.8,256.3,210618,000.0,W*78
$GPGGA,094320.530,4741.715,N,00915.792,E,1,12,1.0,0.0,M,0.0,M,,*60
$GPGSA,A,3,01,02,03,04,05,06,07,08,09,10,11,12,1.0,1.0,1.0*30
$GPRMC,094320.530,A,4741.715,N,00915.792,E,005.8,256.3,210618,000.0,W*77
$GPGGA,094321.530,4741.715,N,00915.790,E,1,12,1.0,0.0,M,0.0,M,,*63
$GPGSA,A,3,01,02,03,04,05,06,07,08,09,10,11,12,1.0,1.0,1.0*30
$GPRMC,094321.530,A,4741.715,N,00915.790,E,005.8,256.3,210618,000.0,W*74
$GPGGA,094322.530,4741.714,N,00915.788,E,1,12,1.0,0.0,M,0.0,M,,*68
$GPGSA,A,3,01,02,03,04,05,06,07,08,09,10,11,12,1.0,1.0,1.0*30
$GPRMC,094322.530,A,4741.714,N,00915.788,E,005.8,256.3,210618,000.0,W*7F
$GPGGA,094323.530,4741.714,N,00915.785,E,1,12,1.0,0.0,M,0.0,M,,*64
$GPGSA,A,3,01,02,03,04,05,06,07,08,09,10,11,12,1.0,1.0,1.0*30
$GPRMC,094323.530,A,4741.714,N,00915.785,E,005.8,256.3,210618,000.0,W*73
$GPGGA,094324.530,4741.713,N,00915.783,E,1,12,1.0,0.0,M,0.0,M,,*62
$GPGSA,A,3,01,02,03,04,05,06,07,08,09,10,11,12,1.0,1.0,1.0*30
$GPRMC,094324.530,A,4741.713,N,00915.783,E,005.8,256.3,210618,000.0,W*75
$GPGGA,094325.530,4741.712,N,00915.781,E,1,12,1.0,0.0,M,0.0,M,,*60
$GPGSA,A,3,01,02,03,04,05,06,07,08,09,10,11,12,1.0,1.0,1.0*30
$GPRMC,094325.530,A,4741.712,N,00915.781,E,005.8,256.3,210618,000.0,W*77
$GPGGA,094326.530,4741.712,N,00915.779,E,1,12,1.0,0.0,M,0.0,M,,*64
$GPGSA,A,3,01,02,03,04,05,06,07,08,09,10,11,12,1.0,1.0,1.0*30
$GPRMC,094326.530,A,4741.712,N,00915.779,E,005.8,256.3,210618,000.0,W*73
$GPGGA,094327.530,4741.711,N,00915.776,E,1,12,1.0,0.0,M,0.0,M,,*69
$GPGSA,A,3,01,02,03,04,05,06,07,08,09,10,11,12,1.0,1.0,1.0*30
$GPRMC,094327.530,A,4741.711,N,00915.776,E,005.8,256.3,210618,000.0,W*7E
$GPGGA,094328.530,4741.711,N,00915.774,E,1,12,1.0,0.0,M,0.0,M,,*64
$GPGSA,A,3,01,02,03,04,05,06,07,08,09,10,11,12,1.0,1.0,1.0*30
$GPRMC,094328.530,A,4741.711,N,00915.774,E,005.8,256.3,210618,000.0,W*73
$GPGGA,094329.530,4741.710,N,00915.772,E,1,12,1.0,0.0,M,0.0,M,,*62
$GPGSA,A,3,01,02,03,04,05,06,07,08,09,10,11,12,1.0,1.0,1.0*30
$GPRMC,094329.530,A,4741.710,N,00915.772,E,005.8,256.3,210618,000.0,W*75
$GPGGA,094330.530,4741.710,N,00915.769,E,1,12,1.0,0.0,M,0.0,M,,*60
$GPGSA,A,3,01,02,03,04,05,06,07,08,09,10,11,12,1.0,1.0,1.0*30
$GPRMC,094330.530,A,4741.710,N,00915.769,E,005.8,256.3,210618,000.0,W*77
$GPGGA,094331.530,4741.709,N,00915.767,E,1,12,1.0,0.0,M,0.0,M,,*67
$GPGSA,A,3,01,02,03,04,05,06,07,08,09,10,11,12,1.0,1.0,1.0*30
$GPRMC,094331.530,A,4741.709,N,00915.767,E,005.8,256.3,210618,000.0,W*70
$GPGGA,094332.530,4741.709,N,00915.765,E,1,12,1.0,0.0,M,0.0,M,,*66
$GPGSA,A,3,01,02,03,04,05,06,07,08,09,10,11,12,1.0,1.0,1.0*30
$GPRMC,094332.530,A,4741.709,N,00915.765,E,005.8,256.3,210618,000.0,W*71
$GPGGA,094333.530,4741.708,N,00915.763,E,1,12,1.0,0.0,M,0.0,M,,*60
$GPGSA,A,3,01,02,03,04,05,06,07,08,09,10,11,12,1.0,1.0,1.0*30
$GPRMC,094333.530,A,4741.708,N,00915.763,E,005.8,256.3,210618,000.0,W*77
$GPGGA,094334.530,4741.707,N,00915.760,E,1,12,1.0,0.0,M,0.0,M,,*6B
$GPGSA,A,3,01,02,03,04,05,06,07,08,09,10,11,12,1.0,1.0,1.0*30
$GPRMC,094334.530,A,4741.707,N,00915.760,E,005.8,256.3,210618,000.0,W*7C
$GPGGA,094335.530,4741.707,N,00915.758,E,1,12,1.0,0.0,M,0.0,M,,*61
$GPGSA,A,3,01,02,03,04,05,06,07,08,09,10,11,12,1.0,1.0,1.0*30
$GPRMC,094335.530,A,4741.707,N,00915.758,E,005.8,256.3,210618,000.0,W*76
$GPGGA,094336.530,4741.706,N,00915.756,E,1,12,1.0,0.0,M,0.0,M,,*6D
$GPGSA,A,3,01,02,03,04,05,06,07,08,09,10,11,12,1.0,1.0,1.0*30
$GPRMC,094336.530,A,4741.706,N,00915.756,E,005.8,256.3,210618,000.0,W*7A
$GPGGA,094337.530,4741.706,N,00915.754,E,1,12,1.0,0.0,M,0.0,M,,*6E
$GPGSA,A,3,01,02,03,04,05,06,07,08,09,10,11,12,1.0,1.0,1.0*30
$GPRMC,094337.530,A,4741.706,N,00915.754,E,005.8,256.3,210618,000.0,W*79
$GPGGA,094338.530,4741.705,N,00915.751,E,1,12,1.0,0.0,M,0.0,M,,*67
$GPGSA,A,3,01,02,03,04,05,06,07,08,09,10,11,12,1.0,1.0,1.0*30
$GPRMC,094338.530,A,4741.705,N,00915.751,E,005.8,256.3,210618,000.0,W*70
$GPGGA,094339.530,4741.705,N,00915.749,E,1,12,1.0,0.0,M,0.0,M,,*6F
$GPGSA,A,3,01,02,03,04,05,06,07,08,09,10,11,12,1.0,1.0,1.0*30
$GPRMC,094339.530,A,4741.705,N,00915.749,E,005.8,256.3,210618,000.0,W*78
$GPGGA,094340.530,4741.704,N,00915.747,E,1,12,1.0,0.0,M,0.0,M,,*6E
$GPGSA,A,3,01,02,03,04,05,06,07,08,09,10,11,12,1.0,1.0,1.0*30
$GPRMC,094340.530,A,4741.704,N,00915.747,E,005.8,256.3,210618,000.0,W*79
$GPGGA,094341.530,4741.704,N,00915.745,E,1,12,1.0,0.0,M,0.0,M,,*6D
$GPGSA,A,3,01,02,03,04,05,06,07,08,09,10,11,12,1.0,1.0,1.0*30
$GPRMC,094341.530,A,4741.704,N,00915.745,E,005.8,256.3,210618,000.0,W*7A
$GPGGA,094342.530,4741.703,N,00915.742,E,1,12,1.0,0.0,M,0.0,M,,*6E
$GPGSA,A,3,01,02,03,04,05,06,07,08,09,10,11,12,1.0,1.0,1.0*30
$GPRMC,094342.530,A,4741.703,N,00915.742,E,005.8,256.3,210618,000.0,W*79
$GPGGA,094343.530,4741.703,N,00915.740,E,1,12,1.0,0.0,M,0.0,M,,*6D
$GPGSA,A,3,01,02,03,04,05,06,07,08,09,10,11,12,1.0,1.0,1.0*30
$GPRMC,094343.530,A,4741.703,N,00915.740,E,005.8,256.3,210618,000.0,W*7A
$GPGGA,094344.530,4741.702,N,00915.738,E,1,12,1.0,0.0,M,0.0,M,,*64
$GPGSA,A,3,01,02,03,04,05,06,07,08,09,10,11,12,1.0,1.0,1.0*30
$GPRMC,094344.530,A,4741.702,N,00915.738,E,005.8,256.3,210618,000.0,W*73
$GPGGA,094345.530,4741.701,N,00915.736,E,1,12,1.0,0.0,M,0.0,M,,*68
$GPGSA,A,3,01,02,03,04,05,06,07,08,09,10,11,12,1.0,1.0,1.0*30
$GPRMC,094345.530,A,4741.701,N,00915.736,E,005.8,256.3,210618,000.0,W*7F
$GPGGA,094346.530,4741.701,N,00915.733,E,1,12,1.0,0.0,M,0.0,M,,*6E
$GPGSA,A,3,01,02,03,04,05,06,07,08,09,10,11,12,1.0,1.0,1.0*30
$GPRMC,094346.530,A,4741.701,N,00915.733,E,005.8,256.3,210618,000.0,W*79
$GPGGA,094347.530,4741.700,N,00915.731,E,1,12,1.0,0.0,M,0.0,M,,*6C
$GPGSA,A,3,01,02,03,04,05,06,07,08,09,10,11,12,1.0,1.0,1.0*30
$GPRMC,094347.530,A,4741.700,N,00915.731,E,005.8,256.3,210618,000.0,W*7B
$GPGGA,094348.530,4741.700,N,00915.729,E,1,12,1.0,0.0,M,0.0,M,,*6A
$GPGSA,A,3,01,02,03,04,05,06,07,08,09,10,11,12,1.0,1.0,1.0*30
$GPRMC,094348.530,A,4741.700,N,00915.729,E,005.8,256.3,210618,000.0,W*7D
$GPGGA,094349.530,4741.699,N,00915.727,E,1,12,1.0,0.0,M,0.0,M,,*64
$GPGSA,A,3,01,02,03,04,05,06,07,08,09,10,11,12,1.0,1.0,1.0*30
$GPRMC,094349.530,A,4741.699,N,00915.727,E,005.8,256.3,210618,000.0,W*73
$GPGGA,094350.530,4741.699,N,00915.724,E,1,12,1.0,0.0,M,0.0,M,,*6F
$GPGSA,A,3,01,02,03,04,05,06,07,08,09,10,11,12,1.0,1.0,1.0*30
$GPRMC,094350.530,A,4741.699,N,00915.724,E,005.8,256.3,210618,000.0,W*78
$GPGGA,094351.530,4741.698,N,00915.722,E,1,12,1.0,0.0,M,0.0,M,,*69
$GPGSA,A,3,01,02,03,04,05,06,07,08,09,10,11,12,1.0,1.0,1.0*30
$GPRMC,094351.530,A,4741.698,N,00915.722,E,005.8,256.3,210618,000.0,W*7E
$GPGGA,094352.530,4741.698,N,00915.720,E,1,12,1.0,0.0,M,0.0,M,,*68
$GPGSA,A,3,01,02,03,04,05,06,07,08,09,10,11,12,1.0,1.0,1.0*30
$GPRMC,094352.530,A,4741.698,N,00915.720,E,005.8,256.3,210618,000.0,W*7F
$GPGGA,094353.530,4741.697,N,00915.717,E,1,12,1.0,0.0,M,0.0,M,,*62
$GPGSA,A,3,01,02,03,04,05,06,07,08,09,10,11,12,1.0,1.0,1.0*30
$GPRMC,094353.530,A,4741.697,N,00915.717,E,005.8,256.3,210618,000.0,W*75
$GPGGA,094354.530,4741.696,N,00915.715,E,1,12,1.0,0.0,M,0.0,M,,*66
$GPGSA,A,3,01,02,03,04,05,06,07,08,09,10,11,12,1.0,1.0,1.0*30
$GPRMC,094354.530,A,4741.696,N,00915.715,E,005.8,256.3,210618,000.0,W*71
$GPGGA,094355.530,4741.696,N,00915.713,E,1,12,1.0,0.0,M,0.0,M,,*61
$GPGSA,A,3,01,02,03,04,05,06,07,08,09,10,11,12,1.0,1.0,1.0*30
$GPRMC,094355.530,A,4741.696,N,00915.713,E,005.8,256.3,210618,000.0,W*76
$GPGGA,094356.530,4741.695,N,00915.711,E,1,12,1.0,0.0,M,0.0,M,,*63
$GPGSA,A,3,01,02,03,04,05,06,07,08,09,10,11,12,1.0,1.0,1.0*30
$GPRMC,094356.530,A,4741.695,N,00915.711,E,005.8,256.3,210618,000.0,W*74
$GPGGA,094357.530,4741.695,N,00915.708,E,1,12,1.0,0.0,M,0.0,M,,*6A
$GPGSA,A,3,01,02,03,04,05,06,07,08,09,10,11,12,1.0,1.0,1.0*30
$GPRMC,094357.530,A,4741.695,N,00915.708,E,005.8,256.3,210618,000.0,W*7D
$GPGGA,094358.530,4741.694,N,00915.706,E,1,12,1.0,0.0,M,0.0,M,,*6A
$GPGSA,A,3,01,02,03,04,05,06,07,08,09,10,11,12,1.0,1.0,1.0*30
$GPRMC,094358.530,A,4741.694,N,00915.706,E,005.8,256.3,210618,000.0,W*7D
$GPGGA,094359.530,4741.694,N,00915.704,E,1,12,1.0,0.0,M,0.0,M,,*69
$GPGSA,A,3,01,02,03,04,05,06,07,08,09,10,11,12,1.0,1.0,1.0*30
$GPRMC,094359.530,A,4741.694,N,00915.704,E,005.8,256.3,210618,000.0,W*7E
$GPGGA,094400.530,4741.693,N,00915.702,E,1,12,1.0,0.0,M,0.0,M,,*63
$GPGSA,A,3,01,02,03,04,05,06,07,08,09,10,11,12,1.0,1.0,1.0*30
$GPRMC,094400.530,A,4741.693,N,00915.702,E,005.8,256.3,210618,000.0,W*74
$GPGGA,094401.530,4741.693,N,00915.699,E,1,12,1.0,0.0,M,0.0,M,,*61
$GPGSA,A,3,01,02,03,04,05,06,07,08,09,10,11,12,1.0,1.0,1.0*30
$GPRMC,094401.530,A,4741.693,N,00915.699,E,005.8,256.3,210618,000.0,W*76
$GPGGA,094402.530,4741.692,N,00915.697,E,1,12,1.0,0.0,M,0.0,M,,*6D
$GPGSA,A,3,01,02,03,04,05,06,07,08,09,10,11,12,1.0,1.0,1.0*30
$GPRMC,094402.530,A,4741.692,N,00915.697,E,005.8,256.3,210618,000.0,W*7A
$GPGGA,094403.530,4741.692,N,00915.695,E,1,12,1.0,0.0,M,0.0,M,,*6E
$GPGSA,A,3,01,02,03,04,05,06,07,08,09,10,11,12,1.0,1.0,1.0*30
$GPRMC,094403.530,A,4741.692,N,00915.695,E,005.8,256.3,210618,000.0,W*79
$GPGGA,094404.530,4741.691,N,00915.693,E,1,12,1.0,0.0,M,0.0,M,,*6C
$GPGSA,A,3,01,02,03,04,05,06,07,08,09,10,11,12,1.0,1.0,1.0*30
$GPRMC,094404.530,A,4741.691,N,00915.693,E,005.8,256.3,210618,000.0,W*7B
$GPGGA,094405.530,4741.690,N,00915.690,E,1,12,1.0,0.0,M,0.0,M,,*6F
$GPGSA,A,3,01,02,03,04,05,06,07,08,09,10,11,12,1.0,1.0,1.0*30
$GPRMC,094405.530,A,4741.690,N,00915.690,E,005.8,256.3,210618,000.0,W*78
$GPGGA,094406.530,4741.690,N,00915.688,E,1,12,1.0,0.0,M,0.0,M,,*65
$GPGSA,A,3,01,02,03,04,05,06,07,08,09,10,11,12,1.0,1.0,1.0*30
$GPRMC,094406.530,A,4741.690,N,00915.688,E,005.8,256.3,210618,000.0,W*72
$GPGGA,094407.530,4741.689,N,00915.686,E,1,12,1.0,0.0,M,0.0,M,,*62
$GPGSA,A,3,01,02,03,04,05,06,07,08,09,10,11,12,1.0,1.0,1.0*30
$GPRMC,094407.530,A,4741.689,N,00915.686,E,005.8,256.3,210618,000.0,W*75
$GPGGA,094408.530,4741.689,N,00915.684,E,1,12,1.0,0.0,M,0.0,M,,*6F
$GPGSA,A,3,01,02,03,04,05,06,07,08,09,10,11,12,1.0,1.0,1.0*30
$GPRMC,094408.530,A,4741.689,N,00915.684,E,005.8,256.3,210618,000.0,W*78
$GPGGA,094409.530,4741.688,N,00915.681,E,1,12,1.0,0.0,M,0.0,M,,*6A
$GPGSA,A,3,01,02,03,04,05,06,07,08,09,10,11,12,1.0,1.0,1.0*30
$GPRMC,094409.530,A,4741.688,N,00915.681,E,005.8,256.3,210618,000.0,W*7D
$GPGGA,094410.530,4741.688,N,00915.679,E,1,12,1.0,0.0,M,0.0,M,,*65
$GPGSA,A,3,01,02,03,04,05,06,07,08,09,10,11,12,1.0,1.0,1.0*30
$GPRMC,094410.530,A,4741.688,N,00915.679,E,005.8,256.3,210618,000.0,W*72
$GPGGA,094411.530,4741.687,N,00915.677,E,1,12,1.0,0.0,M,0.0,M,,*65
$GPGSA,A,3,01,02,03,04,05,06,07,08,09,10,11,12,1.0,1.0,1.0*30
$GPRMC,094411.530,A,4741.687,N,00915.677,E,005.8,256.3,210618,000.0,W*72
$GPGGA,094412.530,4741.687,N,00915.674,E,1,12,1.0,0.0,M,0.0,M,,*65
$GPGSA,A,3,01,02,03,04,05,06,07,08,09,10,11,12,1.0,1.0,1.0*30
$GPRMC,094412.530,A,4741.687,N,00915.674,E,005.8,256.3,210618,000.0,W*72
$GPGGA,094413.530,4741.686,N,00915.672,E,1,12,1.0,0.0,M,0.0,M,,*63
$GPGSA,A,3,01,02,03,04,05,06,07,08,09,10,11,12,1.0,1.0,1.0*30
$GPRMC,094413.530,A,4741.686,N,00915.672,E,005.8,256.3,210618,000.0,W*74
$GPGGA,094414.530,4741.685,N,00915.670,E,1,12,1.0,0.0,M,0.0,M,,*65
$GPGSA,A,3,01,02,03,04,05,06,07,08,09,10,11,12,1.0,1.0,1.0*30
$GPRMC,094414.530,A,4741.685,N,00915.670,E,005.8,256.3,210618,000.0,W*72
$GPGGA,094415.530,4741.685,N,00915.668,E,1,12,1.0,0.0,M,0.0,M,,*6D
$GPGSA,A,3,01,02,03,04,05,06,07,08,09,10,11,12,1.0,1.0,1.0*30
$GPRMC,094415.530,A,4741.685,N,00915.668,E,005.8,256.3,210618,000.0,W*7A
$GPGGA,094416.530,4741.684,N,00915.665,E,1,12,1.0,0.0,M,0.0,M,,*62
$GPGSA,A,3,01,02,03,04,05,06,07,08,09,10,11,12,1.0,1.0,1.0*30
$GPRMC,094416.530,A,4741.684,N,00915.665,E,005.8,256.3,210618,000.0,W*75
$GPGGA,094417.530,4741.684,N,00915.663,E,1,12,1.0,0.0,M,0.0,M,,*65
$GPGSA,A,3,01,02,03,04,05,06,07,08,09,10,11,12,1.0,1.0,1.0*30
$GPRMC,094417.530,A,4741.684,N,00915.663,E,005.8,256.3,210618,000.0,W*72
$GPGGA,094418.530,4741.683,N,00915.661,E,1,12,1.0,0.0,M,0.0,M,,*6F
$GPGSA,A,3,01,02,03,04,05,06,07,08,09,10,11,12,1.0,1.0,1.0*30
$GPRMC,094418.530,A,4741.683,N,00915.661,E,005.8,256.3,210618,000.0,W*78
$GPGGA,094419.530,4741.683,N,00915.659,E,1,12,1.0,0.0,M,0.0,M,,*65
$GPGSA,A,3,01,02,03,04,05,06,07,08,09,10,11,12,1.0,1.0,1.0*30
$GPRMC,094419.530,A,4741.683,N,00915.659,E,005.8,256.3,210618,000.0,W*72
$GPGGA,094420.530,4741.682,N,00915.656,E,1,12,1.0,0.0,M,0.0,M,,*61
$GPGSA,A,3,01,02,03,04,05,06,07,08,09,10,11,12,1.0,1.0,1.0*30
$GPRMC,094420.530,A,4741.682,N,00915.656,E,005.8,256.3,210618,000.0,W*76
$GPGGA,094421.530,4741.682,N,00915.654,E,1,12,1.0,0.0,M,0.0,M,,*62
$GPGSA,A,3,01,02,03,04,05,06,07,08,09,10,11,12,1.0,1.0,1.0*30
$GPRMC,094421.530,A,4741.682,N,00915.654,E,005.8,256.3,210618,000.0,W*75
$GPGGA,094422.530,4741.681,N,00915.652,E,1,12,1.0,0.0,M,0.0,M,,*64
$GPGSA,A,3,01,02,03,04,05,06,07,08,09,10,11,12,1.0,1.0,1.0*30
$GPRMC,094422.530,A,4741.681,N,00915.652,E,005.8,256.3,210618,000.0,W*73
$GPGGA,094423.530,4741.680,N,00915.650,E,1,12,1.0,0.0,M,0.0,M,,*66
$GPGSA,A,3,01,02,03,04,05,06,07,08,09,10,11,12,1.0,1.0,1.0*30
$GPRMC,094423.530,A,4741.680,N,00915.650,E,005.8,256.3,210618,000.0,W*71
$GPGGA,094424.530,4741.680,N,00915.647,E,1,12,1.0,0.0,M,0.0,M,,*67
$GPGSA,A,3,01,02,03,04,05,06,07,08,09,10,11,12,1.0,1.0,1.0*30
$GPRMC,094424.530,A,4741.680,N,00915.647,E,005.8,256.3,210618,000.0,W*70
$GPGGA,094425.530,4741.679,N,00915.645,E,1,12,1.0,0.0,M,0.0,M,,*62
$GPGSA,A,3,01,02,03,04,05,06,07,08,09,10,11,12,1.0,1.0,1.0*30
$GPRMC,094425.530,A,4741.679,N,00915.645,E,005.8,256.3,210618,000.0,W*75
$GPGGA,094426.530,4741.679,N,00915.643,E,1,12,1.0,0.0,M,0.0,M,,*67
$GPGSA,A,3,01,02,03,04,05,06,07,08,09,10,11,12,1.0,1.0,1.0*30
$GPRMC,094426.530,A,4741.679,N,00915.643,E,005.8,256.3,210618,000.0,W*70
$GPGGA,094427.530,4741.678,N,00915.641,E,1,12,1.0,0.0,M,0.0,M,,*65
$GPGSA,A,3,01,02,03,04,05,06,07,08,09,10,11,12,1.0,1.0,1.0*30
$GPRMC,094427.530,A,4741.678,N,00915.641,E,005.8,256.3,210618,000.0,W*72
$GPGGA,094428.530,4741.678,N,00915.638,E,1,12,1.0,0.0,M,0.0,M,,*64
$GPGSA,A,3,01,02,03,04,05,06,07,08,09,10,11,12,1.0,1.0,1.0*30
$GPRMC,094428.530,A,4741.678,N,00915.638,E,005.8,256.3,210618,000.0,W*73
$GPGGA,094429.530,4741.677,N,00915.636,E,1,12,1.0,0.0,M,0.0,M,,*64
$GPGSA,A,3,01,02,03,04,05,06,07,08,09,10,11,12,1.0,1.0,1.0*30
$GPRMC,094429.530,A,4741.677,N,00915.636,E,005.8,256.3,210618,000.0,W*73
$GPGGA,094430.530,4741.677,N,00915.634,E,1,12,1.0,0.0,M,0.0,M,,*6E
$GPGSA,A,3,01,02,03,04,05,06,07,08,09,10,11,12,1.0,1.0,1.0*30
$GPRMC,094430.530,A,4741.677,N,00915.634,E,005.8,256.3,210618,000.0,W*79
$GPGGA,094431.530,4741.676,N,00915.632,E,1,12,1.0,0.0,M,0.0,M,,*68
$GPGSA,A,3,01,02,03,04,05,06,07,08,09,10,11,12,1.0,1.0,1.0*30
$GPRMC,094431.530,A,4741.676,N,00915.632,E,005.8,256.3,210618,000.0,W*7F
$GPGGA,094432.530,4741.676,N,00915.629,E,1,12,1.0,0.0,M,0.0,M,,*61
$GPGSA,A,3,01,02,03,04,05,06,07,08,09,10,11,12,1.0,1.0,1.0*30
$GPRMC,094432.530,A,4741.676,N,00915.629,E,005.8,256.3,210618,000.0,W*76
$GPGGA,094433.530,4741.675,N,00915.627,E,1,12,1.0,0.0,M,0.0,M,,*6D
$GPGSA,A,3,01,02,03,04,05,06,07,08,09,10,11,12,1.0,1.0,1.0*30
$GPRMC,094433.530,A,4741.675,N,00915.627,E,005.8,256.3,210618,000.0,W*7A
$GPGGA,094434.530,4741.674,N,00915.625,E,1,12,1.0,0.0,M,0.0,M,,*69
$GPGSA,A,3,01,02,03,04,05,06,07,08,09,10,11,12,1.0,1.0,1.0*30
$GPRMC,094434.530,A,4741.674,N,00915.625,E,005.8,256.3,210618,000.0,W*7E
$GPGGA,094435.530,4741.674,N,00915.622,E,1,12,1.0,0.0,M,0.0,M,,*6F
$GPGSA,A,3,01,02,03,04,05,06,07,08,09,10,11,12,1.0,1.0,1.0*30
$GPRMC,094435.530,A,4741.674,N,00915.622,E,005.8,256.3,210618,000.0,W*78
$GPGGA,094436.530,4741.673,N,00915.620,E,1,12,1.0,0.0,M,0.0,M,,*69
$GPGSA,A,3,01,02,03,04,05,06,07,08,09,10,11,12,1.0,1.0,1.0*30
$GPRMC,094436.530,A,4741.673,N,00915.620,E,005.8,256.3,210618,000.0,W*7E
$GPGGA,094437.530,4741.673,N,00915.618,E,1,12,1.0,0.0,M,0.0,M,,*63
$GPGSA,A,3,01,02,03,04,05,06,07,08,09,10,11,12,1.0,1.0,1.0*30
$GPRMC,094437.530,A,4741.673,N,00915.618,E,005.8,256.3,210618,000.0,W*74
$GPGGA,094438.530,4741.672,N,00915.616,E,1,12,1.0,0.0,M,0.0,M,,*63
$GPGSA,A,3,01,02,03,04,05,06,07,08,09,10,11,12,1.0,1.0,1.0*30
$GPRMC,094438.530,A,4741.672,N,00915.616,E,005.8,256.3,210618,000.0,W*74
$GPGGA,094439.530,4741.672,N,00915.613,E,1,12,1.0,0.0,M,0.0,M,,*67
$GPGSA,A,3,01,02,03,04,05,06,07,08,09,10,11,12,1.0,1.0,1.0*30
$GPRMC,094439.530,A,4741.672,N,00915.613,E,005.8,256.3,210618,000.0,W*70
$GPGGA,094440.530,4741.671,N,00915.611,E,1,12,1.0,0.0,M,0.0,M,,*68
$GPGSA,A,3,01,02,03,04,05,06,07,08,09,10,11,12,1.0,1.0,1.0*30
$GPRMC,094440.530,A,4741.671,N,00915.611,E,005.8,256.3,210618,000.0,W*7F
$GPGGA,094441.530,4741.671,N,00915.609,E,1,12,1.0,0.0,M,0.0,M,,*60
$GPGSA,A,3,01,02,03,04,05,06,07,08,09,10,11,12,1.0,1.0,1.0*30
$GPRMC,094441.530,A,4741.671,N,00915.609,E,005.8,256.3,210618,000.0,W*77
$GPGGA,094442.530,4741.670,N,00915.607,E,1,12,1.0,0.0,M,0.0,M,,*6C
$GPGSA,A,3,01,02,03,04,05,06,07,08,09,10,11,12,1.0,1.0,1.0*30
$GPRMC,094442.530,A,4741.670,N,00915.607,E,005.8,256.3,210618,000.0,W*7B
$GPGGA,094443.530,4741.669,N,00915.604,E,1,12,1.0,0.0,M,0.0,M,,*66
$GPGSA,A,3,01,02,03,04,05,06,07,08,09,10,11,12,1.0,1.0,1.0*30
$GPRMC,094443.530,A,4741.669,N,00915.604,E,005.8,256.3,210618,000.0,W*71
$GPGGA,094444.530,4741.669,N,00915.602,E,1,12,1.0,0.0,M,0.0,M,,*67
$GPGSA,A,3,01,02,03,04,05,06,07,08,09,10,11,12,1.0,1.0,1.0*30
$GPRMC,094444.530,A,4741.669,N,00915.602,E,005.8,256.3,210618,000.0,W*70
$GPGGA,094445.530,4741.668,N,00915.600,E,1,12,1.0,0.0,M,0.0,M,,*65
$GPGSA,A,3,01,02,03,04,05,06,07,08,09,10,11,12,1.0,1.0,1.0*30
$GPRMC,094445.530,A,4741.668,N,00915.600,E,005.8,256.3,210618,000.0,W*72
$GPGGA,094446.530,4741.668,N,00915.598,E,1,12,1.0,0.0,M,0.0,M,,*64
$GPGSA,A,3,01,02,03,04,05,06,07,08,09,10,11,12,1.0,1.0,1.0*30
$GPRMC,094446.530,A,4741.668,N,00915.598,E,005.8,256.3,210618,000.0,W*73
$GPGGA,094447.530,4741.667,N,00915.595,E,1,12,1.0,0.0,M,0.0,M,,*67
$GPGSA,A,3,01,02,03,04,05,06,07,08,09,10,11,12,1.0,1.0,1.0*30
$GPRMC,094447.530,A,4741.667,N,00915.595,E,005.8,256.3,210618,000.0,W*70
$GPGGA,094448.530,4741.667,N,00915.593,E,1,12,1.0,0.0,M,0.0,M,,*6E
$GPGSA,A,3,01,02,03,04,05,06,07,08,09,10,11,12,1.0,1.0,1.0*30
$GPRMC,094448.530,A,4741.667,N,00915.593,E,005.8,256.3,210618,000.0,W*79
$GPGGA,094449.530,4741.666,N,00915.591,E,1,12,1.0,0.0,M,0.0,M,,*6C
$GPGSA,A,3,01,02,03,04,05,06,07,08,09,10,11,12,1.0,1.0,1.0*30
$GPRMC,094449.530,A,4741.666,N,00915.591,E,005.8,256.3,210618,000.0,W*7B
$GPGGA,094450.530,4741.666,N,00915.589,E,1,12,1.0,0.0,M,0.0,M,,*6D
$GPGSA,A,3,01,02,03,04,05,06,07,08,09,10,11,12,1.0,1.0,1.0*30
$GPRMC,094450.530,A,4741.666,N,00915.589,E,005.8,256.3,210618,000.0,W*7A
$GPGGA,094451.530,4741.665,N,00915.586,E,1,12,1.0,0.0,M,0.0,M,,*60
$GPGSA,A,3,01,02,03,04,05,06,07,08,09,10,11,12,1.0,1.0,1.0*30
$GPRMC,094451.530,A,4741.665,N,00915.586,E,005.8,256.3,210618,000.0,W*77
$GPGGA,094452.530,4741.665,N,00915.584,E,1,12,1.0,0.0,M,0.0,M,,*61
$GPGSA,A,3,01,02,03,04,05,06,07,08,09,10,11,12,1.0,1.0,1.0*30
$GPRMC,094452.530,A,4741.665,N,00915.584,E,005.8,256.3,210618,000.0,W*76
$GPGGA,094453.530,4741.664,N,00915.582,E,1,12,1.0,0.0,M,0.0,M,,*67
$GPGSA,A,3,01,02,03,04,05,06,07,08,09,10,11,12,1.0,1.0,1.0*30
$GPRMC,094453.530,A,4741.664,N,00915.582,E,005.8,256.3,210618,000.0,W*70
$GPGGA,094454.530,4741.663,N,00915.580,E,1,12,1.0,0.0,M,0.0,M,,*65
$GPGSA,A,3,01,02,03,04,05,06,07,08,09,10,11,12,1.0,1.0,1.0*30
$GPRMC,094454.530,A,4741.663,N,00915.580,E,005.8,256.3,210618,000.0,W*72
$GPGGA,094455.530,4741.663,N,00915.577,E,1,12,1.0,0.0,M,0.0,M,,*6C
$GPGSA,A,3,01,02,03,04,05,06,07,08,09,10,11,12,1.0,1.0,1.0*30
$GPRMC,094455.530,A,4741.663,N,00915.577,E,005.8,256.3,210618,000.0,W*7B
$GPGGA,094456.530,4741.662,N,00915.575,E,1,12,1.0,0.0,M,0.0,M,,*6C
$GPGSA,A,3,01,02,03,04,05,06,07,08,09,10,11,12,1.0,1.0,1.0*30
$GPRMC,094456.530,A,4741.662,N,00915.575,E,005.8,256.3,210618,000.0,W*7B
$GPGGA,094457.530,4741.662,N,00915.573,E,1,12,1.0,0.0,M,0.0,M,,*6B
$GPGSA,A,3,01,02,03,04,05,06,07,08,09,10,11,12,1.0,1.0,1.0*30
$GPRMC,094457.530,A,4741.662,N,00915.573,E,005.8,256.3,210618,000.0,W*7C
$GPGGA,094458.530,4741.661,N,00915.570,E,1,12,1.0,0.0,M,0.0,M,,*64
$GPGSA,A,3,01,02,03,04,05,06,07,08,09,10,11,12,1.0,1.0,1.0*30
$GPRMC,094458.530,A,4741.661,N,00915.570,E,005.8,256.3,210618,000.0,W*73
$GPGGA,094459.530,4741.661,N,00915.568,E,1,12,1.0,0.0,M,0.0,M,,*6C
$GPGSA,A,3,01,02,03,04,05,06,07,08,09,10,11,12,1.0,1.0,1.0*30
$GPRMC,094459.530,A,4741.661,N,00915.568,E,005.8,256.3,210618,000.0,W*7B
$GPGGA,094500.530,4741.660,N,00915.566,E,1,12,1.0,0.0,M,0.0,M,,*6E
$GPGSA,A,3,01,02,03,04,05,06,07,08,09,10,11,12,1.0,1.0,1.0*30
$GPRMC,094500.530,A,4741.660,N,00915.566,E,005.8,256.3,210618,000.0,W*79
$GPGGA,094501.530,4741.660,N,00915.564,E,1,12,1.0,0.0,M,0.0,M,,*6D
$GPGSA,A,3,01,02,03,04,05,06,07,08,09,10,11,12,1.0,1.0,1.0*30
$GPRMC,094501.530,A,4741.660,N,00915.564,E,005.8,256.3,210618,000.0,W*7A
$GPGGA,094502.530,4741.659,N,00915.561,E,1,12,1.0,0.0,M,0.0,M,,*61
$GPGSA,A,3,01,02,03,04,05,06,07,08,09,10,11,12,1.0,1.0,1.0*30
$GPRMC,094502.530,A,4741.659,N,00915.561,E,005.8,256.3,210618,000.0,W*76
$GPGGA,094503.530,4741.658,N,00915.559,E,1,12,1.0,0.0,M,0.0,M,,*6A
$GPGSA,A,3,01,02,03,04,05,06,07,08,09,10,11,12,1.0,1.0,1.0*30
$GPRMC,094503.530,A,4741.658,N,00915.559,E,005.8,256.3,210618,000.0,W*7D
$GPGGA,094504.530,4741.658,N,00915.557,E,1,12,1.0,0.0,M,0.0,M,,*63
$GPGSA,A,3,01,02,03,04,05,06,07,08,09,10,11,12,1.0,1.0,1.0*30
$GPRMC,094504.530,A,4741.658,N,00915.557,E,005.8,256.3,210618,000.0,W*74
$GPGGA,094505.530,4741.657,N,00915.555,E,1,12,1.0,0.0,M,0.0,M,,*6F
$GPGSA,A,3,01,02,03,04,05,06,07,08,09,10,11,12,1.0,1.0,1.0*30
$GPRMC,094505.530,A,4741.657,N,00915.555,E,005.8,256.3,210618,000.0,W*78
$GPGGA,094506.530,4741.657,N,00915.552,E,1,12,1.0,0.0,M,0.0,M,,*6B
$GPGSA,A,3,01,02,03,04,05,06,07,08,09,10,11,12,1.0,1.0,1.0*30
$GPRMC,094506.530,A,4741.657,N,00915.552,E,005.8,256.3,210618,000.0,W*7C
$GPGGA,094507.530,4741.656,N,00915.550,E,1,12,1.0,0.0,M,0.0,M,,*69
$GPGSA,A,3,01,02,03,04,05,06,07,08,09,10,11,12,1.0,1.0,1.0*30
$GPRMC,094507.530,A,4741.656,N,00915.550,E,005.8,256.3,210618,000.0,W*7E
