$GPGGA,091538.000,4741.712,N,00916.308,E,1,12,1.0,0.0,M,0.0,M,,*6F
$GPGSA,A,3,01,02,03,04,05,06,07,08,09,10,11,12,1.0,1.0,1.0*30
$GPRMC,091538.000,A,4741.712,N,00916.308,E,013.6,346.7,210618,000.0,W*75
$GPGGA,091539.000,4741.716,N,00916.307,E,1,12,1.0,0.0,M,0.0,M,,*65
$GPGSA,A,3,01,02,03,04,05,06,07,08,09,10,11,12,1.0,1.0,1.0*30
$GPRMC,091539.000,A,4741.716,N,00916.307,E,013.6,346.7,210618,000.0,W*7F
$GPGGA,091540.000,4741.719,N,00916.306,E,1,12,1.0,0.0,M,0.0,M,,*65
$GPGSA,A,3,01,02,03,04,05,06,07,08,09,10,11,12,1.0,1.0,1.0*30
$GPRMC,091540.000,A,4741.719,N,00916.306,E,013.6,346.7,210618,000.0,W*7F
$GPGGA,091541.000,4741.723,N,00916.305,E,1,12,1.0,0.0,M,0.0,M,,*6E
$GPGSA,A,3,01,02,03,04,05,06,07,08,09,10,11,12,1.0,1.0,1.0*30
$GPRMC,091541.000,A,4741.723,N,00916.305,E,011.6,358.4,210618,000.0,W*7A
$GPGGA,091542.000,4741.726,N,00916.305,E,1,12,1.0,0.0,M,0.0,M,,*68
$GPGSA,A,3,01,02,03,04,05,06,07,08,09,10,11,12,1.0,1.0,1.0*30
$GPRMC,091542.000,A,4741.726,N,00916.305,E,013.6,259.9,210618,000.0,W*73
$GPGGA,091543.000,4741.725,N,00916.300,E,1,12,1.0,0.0,M,0.0,M,,*6F
$GPGSA,A,3,01,02,03,04,05,06,07,08,09,10,11,12,1.0,1.0,1.0*30
$GPRMC,091543.000,A,4741.725,N,00916.300,E,013.6,259.9,210618,000.0,W*74
$GPGGA,091544.000,4741.724,N,00916.294,E,1,12,1.0,0.0,M,0.0,M,,*65
$GPGSA,A,3,01,02,03,04,05,06,07,08,09,10,11,12,1.0,1.0,1.0*30
$GPRMC,091544.000,A,4741.724,N,00916.294,E,013.6,259.9,210618,000.0,W*7E
$GPGGA,091545.000,4741.724,N,00916.289,E,1,12,1.0,0.0,M,0.0,M,,*68
$GPGSA,A,3,01,02,03,04,05,06,07,08,09,10,11,12,1.0,1.0,1.0*30
$GPRMC,091545.000,A,4741.724,N,00916.289,E,013.6,259.9,210618,000.0,W*73
$GPGGA,091546.000,4741.723,N,00916.283,E,1,12,1.0,0.0,M,0.0,M,,*66
$GPGSA,A,3,01,02,03,04,05,06,07,08,09,10,11,12,1.0,1.0,1.0*30
$GPRMC,091546.000,A,4741.723,N,00916.283,E,013.6,259.9,210618,000.0,W*7D
$GPGGA,091547.000,4741.722,N,00916.278,E,1,12,1.0,0.0,M,0.0,M,,*62
$GPGSA,A,3,01,02,03,04,05,06,07,08,09,10,11,12,1.0,1.0,1.0*30
$GPRMC,091547.000,A,4741.722,N,00916.278,E,013.6,259.9,210618,000.0,W*79
$GPGGA,091548.000,4741.721,N,00916.273,E,1,12,1.0,0.0,M,0.0,M,,*65
$GPGSA,A,3,01,02,03,04,05,06,07,08,09,10,11,12,1.0,1.0,1.0*30
$GPRMC,091548.000,A,4741.721,N,00916.273,E,013.6,259.9,210618,000.0,W*7E
$GPGGA,091549.000,4741.720,N,00916.267,E,1,12,1.0,0.0,M,0.0,M,,*60
$GPGSA,A,3,01,02,03,04,05,06,07,08,09,10,11,12,1.0,1.0,1.0*30
$GPRMC,091549.000,A,4741.720,N,00916.267,E,013.6,259.9,210618,000.0,W*7B
$GPGGA,091550.000,4741.719,N,00916.262,E,1,12,1.0,0.0,M,0.0,M,,*67
$GPGSA,A,3,01,02,03,04,05,06,07,08,09,10,11,12,1.0,1.0,1.0*30
$GPRMC,091550.000,A,4741.719,N,00916.262,E,013.6,259.9,210618,000.0,W*7C
$GPGGA,091551.000,4741.718,N,00916.256,E,1,12,1.0,0.0,M,0.0,M,,*60
$GPGSA,A,3,01,02,03,04,05,06,07,08,09,10,11,12,1.0,1.0,1.0*30
$GPRMC,091551.000,A,4741.718,N,00916.256,E,013.6,249.8,210618,000.0,W*7B
$GPGGA,091552.000,4741.716,N,00916.251,E,1,12,1.0,0.0,M,0.0,M,,*6A
$GPGSA,A,3,01,02,03,04,05,06,07,08,09,10,11,12,1.0,1.0,1.0*30
$GPRMC,091552.000,A,4741.716,N,00916.251,E,013.6,249.8,210618,000.0,W*71
$GPGGA,091553.000,4741.714,N,00916.246,E,1,12,1.0,0.0,M,0.0,M,,*6F
$GPGSA,A,3,01,02,03,04,05,06,07,08,09,10,11,12,1.0,1.0,1.0*30
$GPRMC,091553.000,A,4741.714,N,00916.246,E,013.6,236.5,210618,000.0,W*71
$GPGGA,091554.000,4741.711,N,00916.242,E,1,12,1.0,0.0,M,0.0,M,,*69
$GPGSA,A,3,01,02,03,04,05,06,07,08,09,10,11,12,1.0,1.0,1.0*30
$GPRMC,091554.000,A,4741.711,N,00916.242,E,013.6,236.5,210618,000.0,W*77
$GPGGA,091555.000,4741.709,N,00916.238,E,1,12,1.0,0.0,M,0.0,M,,*6C
$GPGSA,A,3,01,02,03,04,05,06,07,08,09,10,11,12,1.0,1.0,1.0*30
$GPRMC,091555.000,A,4741.709,N,00916.238,E,013.6,236.5,210618,000.0,W*72
$GPGGA,091556.000,4741.706,N,00916.234,E,1,12,1.0,0.0,M,0.0,M,,*6C
$GPGSA,A,3,01,02,03,04,05,06,07,08,09,10,11,12,1.0,1.0,1.0*30
$GPRMC,091556.000,A,4741.706,N,00916.234,E,013.6,229.8,210618,000.0,W*71
$GPGGA,091557.000,4741.703,N,00916.231,E,1,12,1.0,0.0,M,0.0,M,,*6D
$GPGSA,A,3,01,02,03,04,05,06,07,08,09,10,11,12,1.0,1.0,1.0*30
$GPRMC,091557.000,A,4741.703,N,00916.231,E,013.6,229.8,210618,000.0,W*70
$GPGGA,091558.000,4741.700,N,00916.227,E,1,12,1.0,0.0,M,0.0,M,,*66
$GPGSA,A,3,01,02,03,04,05,06,07,08,09,10,11,12,1.0,1.0,1.0*30
$GPRMC,091558.000,A,4741.700,N,00916.227,E,013.6,229.8,210618,000.0,W*7B
$GPGGA,091559.000,4741.697,N,00916.224,E,1,12,1.0,0.0,M,0.0,M,,*6B
$GPGSA,A,3,01,02,03,04,05,06,07,08,09,10,11,12,1.0,1.0,1.0*30
$GPRMC,091559.000,A,4741.697,N,00916.224,E,013.6,229.8,210618,000.0,W*76
$GPGGA,091600.000,4741.694,N,00916.220,E,1,12,1.0,0.0,M,0.0,M,,*63
$GPGSA,A,3,01,02,03,04,05,06,07,08,09,10,11,12,1.0,1.0,1.0*30
$GPRMC,091600.000,A,4741.694,N,00916.220,E,013.6,240.9,210618,000.0,W*70
$GPGGA,091601.000,4741.692,N,00916.216,E,1,12,1.0,0.0,M,0.0,M,,*61
$GPGSA,A,3,01,02,03,04,05,06,07,08,09,10,11,12,1.0,1.0,1.0*30
$GPRMC,091601.000,A,4741.692,N,00916.216,E,013.6,240.9,210618,000.0,W*72
$GPGGA,091602.000,4741.690,N,00916.212,E,1,12,1.0,0.0,M,0.0,M,,*64
$GPGSA,A,3,01,02,03,04,05,06,07,08,09,10,11,12,1.0,1.0,1.0*30
$GPRMC,091602.000,A,4741.690,N,00916.212,E,013.6,240.9,210618,000.0,W*77
$GPGGA,091603.000,4741.687,N,00916.207,E,1,12,1.0,0.0,M,0.0,M,,*67
$GPGSA,A,3,01,02,03,04,05,06,07,08,09,10,11,12,1.0,1.0,1.0*30
$GPRMC,091603.000,A,4741.687,N,00916.207,E,013.6,240.9,210618,000.0,W*74
$GPGGA,091604.000,4741.685,N,00916.203,E,1,12,1.0,0.0,M,0.0,M,,*66
$GPGSA,A,3,01,02,03,04,05,06,07,08,09,10,11,12,1.0,1.0,1.0*30
$GPRMC,091604.000,A,4741.685,N,00916.203,E,013.6,254.6,210618,000.0,W*7F
$GPGGA,091605.000,4741.683,N,00916.198,E,1,12,1.0,0.0,M,0.0,M,,*60
$GPGSA,A,3,01,02,03,04,05,06,07,08,09,10,11,12,1.0,1.0,1.0*30
$GPRMC,091605.000,A,4741.683,N,00916.198,E,013.6,254.6,210618,000.0,W*79
$GPGGA,091606.000,4741.682,N,00916.193,E,1,12,1.0,0.0,M,0.0,M,,*69
$GPGSA,A,3,01,02,03,04,05,06,07,08,09,10,11,12,1.0,1.0,1.0*30
$GPRMC,091606.000,A,4741.682,N,00916.193,E,013.6,254.6,210618,000.0,W*70
$GPGGA,091607.000,4741.681,N,00916.188,E,1,12,1.0,0.0,M,0.0,M,,*61
$GPGSA,A,3,01,02,03,04,05,06,07,08,09,10,11,12,1.0,1.0,1.0*30
$GPRMC,091607.000,A,4741.681,N,00916.188,E,013.6,254.6,210618,000.0,W*78
$GPGGA,091608.000,4741.679,N,00916.182,E,1,12,1.0,0.0,M,0.0,M,,*63
$GPGSA,A,3,01,02,03,04,05,06,07,08,09,10,11,12,1.0,1.0,1.0*30
$GPRMC,091608.000,A,4741.679,N,00916.182,E,013.6,263.8,210618,000.0,W*70
$GPGGA,091609.000,4741.678,N,00916.177,E,1,12,1.0,0.0,M,0.0,M,,*69
$GPGSA,A,3,01,02,03,04,05,06,07,08,09,10,11,12,1.0,1.0,1.0*30
$GPRMC,091609.000,A,4741.678,N,00916.177,E,013.6,263.8,210618,000.0,W*7A
$GPGGA,091610.000,4741.678,N,00916.171,E,1,12,1.0,0.0,M,0.0,M,,*67
$GPGSA,A,3,01,02,03,04,05,06,07,08,09,10,11,12,1.0,1.0,1.0*30
$GPRMC,091610.000,A,4741.678,N,00916.171,E,013.6,263.8,210618,000.0,W*74
$GPGGA,091611.000,4741.677,N,00916.166,E,1,12,1.0,0.0,M,0.0,M,,*6F
$GPGSA,A,3,01,02,03,04,05,06,07,08,09,10,11,12,1.0,1.0,1.0*30
$GPRMC,091611.000,A,4741.677,N,00916.166,E,013.6,263.8,210618,000.0,W*7C
$GPGGA,091612.000,4741.677,N,00916.160,E,1,12,1.0,0.0,M,0.0,M,,*6A
$GPGSA,A,3,01,02,03,04,05,06,07,08,09,10,11,12,1.0,1.0,1.0*30
$GPRMC,091612.000,A,4741.677,N,00916.160,E,013.6,263.8,210618,000.0,W*79
$GPGGA,091613.000,4741.676,N,00916.155,E,1,12,1.0,0.0,M,0.0,M,,*6C
$GPGSA,A,3,01,02,03,04,05,06,07,08,09,10,11,12,1.0,1.0,1.0*30
$GPRMC,091613.000,A,4741.676,N,00916.155,E,013.6,263.8,210618,000.0,W*7F
$GPGGA,091614.000,4741.675,N,00916.149,E,1,12,1.0,0.0,M,0.0,M,,*65
$GPGSA,A,3,01,02,03,04,05,06,07,08,09,10,11,12,1.0,1.0,1.0*30
$GPRMC,091614.000,A,4741.675,N,00916.149,E,013.6,271.8,210618,000.0,W*75
$GPGGA,091615.000,4741.676,N,00916.143,E,1,12,1.0,0.0,M,0.0,M,,*6D
$GPGSA,A,3,01,02,03,04,05,06,07,08,09,10,11,12,1.0,1.0,1.0*30
$GPRMC,091615.000,A,4741.676,N,00916.143,E,013.6,271.8,210618,000.0,W*7D
$GPGGA,091616.000,4741.676,N,00916.138,E,1,12,1.0,0.0,M,0.0,M,,*62
$GPGSA,A,3,01,02,03,04,05,06,07,08,09,10,11,12,1.0,1.0,1.0*30
$GPRMC,091616.000,A,4741.676,N,00916.138,E,013.6,271.8,210618,000.0,W*72
$GPGGA,091617.000,4741.676,N,00916.132,E,1,12,1.0,0.0,M,0.0,M,,*69
$GPGSA,A,3,01,02,03,04,05,06,07,08,09,10,11,12,1.0,1.0,1.0*30
$GPRMC,091617.000,A,4741.676,N,00916.132,E,013.6,271.8,210618,000.0,W*79
$GPGGA,091618.000,4741.676,N,00916.127,E,1,12,1.0,0.0,M,0.0,M,,*62
$GPGSA,A,3,01,02,03,04,05,06,07,08,09,10,11,12,1.0,1.0,1.0*30
$GPRMC,091618.000,A,4741.676,N,00916.127,E,013.6,285.8,210618,000.0,W*79
$GPGGA,091619.000,4741.678,N,00916.121,E,1,12,1.0,0.0,M,0.0,M,,*6B
$GPGSA,A,3,01,02,03,04,05,06,07,08,09,10,11,12,1.0,1.0,1.0*30
$GPRMC,091619.000,A,4741.678,N,00916.121,E,013.6,285.8,210618,000.0,W*70
$GPGGA,091620.000,4741.679,N,00916.116,E,1,12,1.0,0.0,M,0.0,M,,*64
$GPGSA,A,3,01,02,03,04,05,06,07,08,09,10,11,12,1.0,1.0,1.0*30
$GPRMC,091620.000,A,4741.679,N,00916.116,E,013.6,285.8,210618,000.0,W*7F
$GPGGA,091621.000,4741.681,N,00916.111,E,1,12,1.0,0.0,M,0.0,M,,*65
$GPGSA,A,3,01,02,03,04,05,06,07,08,09,10,11,12,1.0,1.0,1.0*30
$GPRMC,091621.000,A,4741.681,N,00916.111,E,013.6,285.8,210618,000.0,W*7E
$GPGGA,091622.000,4741.682,N,00916.106,E,1,12,1.0,0.0,M,0.0,M,,*63
$GPGSA,A,3,01,02,03,04,05,06,07,08,09,10,11,12,1.0,1.0,1.0*30
$GPRMC,091622.000,A,4741.682,N,00916.106,E,013.6,285.8,210618,000.0,W*78
$GPGGA,091623.000,4741.684,N,00916.101,E,1,12,1.0,0.0,M,0.0,M,,*63
$GPGSA,A,3,01,02,03,04,05,06,07,08,09,10,11,12,1.0,1.0,1.0*30
$GPRMC,091623.000,A,4741.684,N,00916.101,E,013.6,285.8,210618,000.0,W*78
$GPGGA,091624.000,4741.685,N,00916.096,E,1,12,1.0,0.0,M,0.0,M,,*6A
$GPGSA,A,3,01,02,03,04,05,06,07,08,09,10,11,12,1.0,1.0,1.0*30
$GPRMC,091624.000,A,4741.685,N,00916.096,E,013.6,293.7,210618,000.0,W*79
$GPGGA,091625.000,4741.687,N,00916.091,E,1,12,1.0,0.0,M,0.0,M,,*6E
$GPGSA,A,3,01,02,03,04,05,06,07,08,09,10,11,12,1.0,1.0,1.0*30
$GPRMC,091625.000,A,4741.687,N,00916.091,E,013.6,293.7,210618,000.0,W*7D
$GPGGA,091626.000,4741.689,N,00916.086,E,1,12,1.0,0.0,M,0.0,M,,*65
$GPGSA,A,3,01,02,03,04,05,06,07,08,09,10,11,12,1.0,1.0,1.0*30
$GPRMC,091626.000,A,4741.689,N,00916.086,E,013.6,293.7,210618,000.0,W*76
$GPGGA,091627.000,4741.691,N,00916.082,E,1,12,1.0,0.0,M,0.0,M,,*69
$GPGSA,A,3,01,02,03,04,05,06,07,08,09,10,11,12,1.0,1.0,1.0*30
$GPRMC,091627.000,A,4741.691,N,00916.082,E,013.6,293.7,210618,000.0,W*7A
$GPGGA,091628.000,4741.693,N,00916.077,E,1,12,1.0,0.0,M,0.0,M,,*6E
$GPGSA,A,3,01,02,03,04,05,06,07,08,09,10,11,12,1.0,1.0,1.0*30
$GPRMC,091628.000,A,4741.693,N,00916.077,E,013.6,293.7,210618,000.0,W*7D
$GPGGA,091629.000,4741.695,N,00916.072,E,1,12,1.0,0.0,M,0.0,M,,*6C
$GPGSA,A,3,01,02,03,04,05,06,07,08,09,10,11,12,1.0,1.0,1.0*30
$GPRMC,091629.000,A,4741.695,N,00916.072,E,013.6,291.6,210618,000.0,W*7C
$GPGGA,091630.000,4741.697,N,00916.067,E,1,12,1.0,0.0,M,0.0,M,,*62
$GPGSA,A,3,01,02,03,04,05,06,07,08,09,10,11,12,1.0,1.0,1.0*30
$GPRMC,091630.000,A,4741.697,N,00916.067,E,013.6,291.6,210618,000.0,W*72
$GPGGA,091631.000,4741.699,N,00916.062,E,1,12,1.0,0.0,M,0.0,M,,*68
$GPGSA,A,3,01,02,03,04,05,06,07,08,09,10,11,12,1.0,1.0,1.0*30
$GPRMC,091631.000,A,4741.699,N,00916.062,E,013.6,291.6,210618,000.0,W*78
$GPGGA,091632.000,4741.701,N,00916.058,E,1,12,1.0,0.0,M,0.0,M,,*62
$GPGSA,A,3,01,02,03,04,05,06,07,08,09,10,11,12,1.0,1.0,1.0*30
$GPRMC,091632.000,A,4741.701,N,00916.058,E,013.6,291.6,210618,000.0,W*72
$GPGGA,091633.000,4741.703,N,00916.053,E,1,12,1.0,0.0,M,0.0,M,,*6A
$GPGSA,A,3,01,02,03,04,05,06,07,08,09,10,11,12,1.0,1.0,1.0*30
$GPRMC,091633.000,A,4741.703,N,00916.053,E,013.6,291.6,210618,000.0,W*7A
$GPGGA,091634.000,4741.705,N,00916.048,E,1,12,1.0,0.0,M,0.0,M,,*61
$GPGSA,A,3,01,02,03,04,05,06,07,08,09,10,11,12,1.0,1.0,1.0*30
$GPRMC,091634.000,A,4741.705,N,00916.048,E,013.6,287.0,210618,000.0,W*70
$GPGGA,091635.000,4741.706,N,00916.043,E,1,12,1.0,0.0,M,0.0,M,,*68
$GPGSA,A,3,01,02,03,04,05,06,07,08,09,10,11,12,1.0,1.0,1.0*30
$GPRMC,091635.000,A,4741.706,N,00916.043,E,013.6,287.0,210618,000.0,W*79
$GPGGA,091636.000,4741.708,N,00916.038,E,1,12,1.0,0.0,M,0.0,M,,*69
$GPGSA,A,3,01,02,03,04,05,06,07,08,09,10,11,12,1.0,1.0,1.0*30
$GPRMC,091636.000,A,4741.708,N,00916.038,E,013.6,287.0,210618,000.0,W*78
$GPGGA,091637.000,4741.709,N,00916.033,E,1,12,1.0,0.0,M,0.0,M,,*62
$GPGSA,A,3,01,02,03,04,05,06,07,08,09,10,11,12,1.0,1.0,1.0*30
$GPRMC,091637.000,A,4741.709,N,00916.033,E,013.6,287.4,210618,000.0,W*77
$GPGGA,091638.000,4741.711,N,00916.027,E,1,12,1.0,0.0,M,0.0,M,,*61
$GPGSA,A,3,01,02,03,04,05,06,07,08,09,10,11,12,1.0,1.0,1.0*30
$GPRMC,091638.000,A,4741.711,N,00916.027,E,013.6,287.4,210618,000.0,W*74
$GPGGA,091639.000,4741.713,N,00916.022,E,1,12,1.0,0.0,M,0.0,M,,*67
$GPGSA,A,3,01,02,03,04,05,06,07,08,09,10,11,12,1.0,1.0,1.0*30
$GPRMC,091639.000,A,4741.713,N,00916.022,E,013.6,287.4,210618,000.0,W*72
$GPGGA,091640.000,4741.714,N,00916.017,E,1,12,1.0,0.0,M,0.0,M,,*68
$GPGSA,A,3,01,02,03,04,05,06,07,08,09,10,11,12,1.0,1.0,1.0*30
$GPRMC,091640.000,A,4741.714,N,00916.017,E,013.6,287.4,210618,000.0,W*7D
$GPGGA,091641.000,4741.716,N,00916.012,E,1,12,1.0,0.0,M,0.0,M,,*6E
$GPGSA,A,3,01,02,03,04,05,06,07,08,09,10,11,12,1.0,1.0,1.0*30
$GPRMC,091641.000,A,4741.716,N,00916.012,E,013.6,287.4,210618,000.0,W*7B
$GPGGA,091642.000,4741.717,N,00916.007,E,1,12,1.0,0.0,M,0.0,M,,*68
$GPGSA,A,3,01,02,03,04,05,06,07,08,09,10,11,12,1.0,1.0,1.0*30
$GPRMC,091642.000,A,4741.717,N,00916.007,E,013.6,287.4,210618,000.0,W*7D
$GPGGA,091643.000,4741.719,N,00916.002,E,1,12,1.0,0.0,M,0.0,M,,*62
$GPGSA,A,3,01,02,03,04,05,06,07,08,09,10,11,12,1.0,1.0,1.0*30
$GPRMC,091643.000,A,4741.719,N,00916.002,E,013.6,300.3,210618,000.0,W*7E
$GPGGA,091644.000,4741.721,N,00915.998,E,1,12,1.0,0.0,M,0.0,M,,*67
$GPGSA,A,3,01,02,03,04,05,06,07,08,09,10,11,12,1.0,1.0,1.0*30
$GPRMC,091644.000,A,4741.721,N,00915.998,E,013.6,300.3,210618,000.0,W*7B
$GPGGA,091645.000,4741.724,N,00915.993,E,1,12,1.0,0.0,M,0.0,M,,*68
$GPGSA,A,3,01,02,03,04,05,06,07,08,09,10,11,12,1.0,1.0,1.0*30
$GPRMC,091645.000,A,4741.724,N,00915.993,E,013.6,300.3,210618,000.0,W*74
$GPGGA,091646.000,4741.726,N,00915.989,E,1,12,1.0,0.0,M,0.0,M,,*62
$GPGSA,A,3,01,02,03,04,05,06,07,08,09,10,11,12,1.0,1.0,1.0*30
$GPRMC,091646.000,A,4741.726,N,00915.989,E,013.6,304.5,210618,000.0,W*7C
$GPGGA,091647.000,4741.729,N,00915.985,E,1,12,1.0,0.0,M,0.0,M,,*60
$GPGSA,A,3,01,02,03,04,05,06,07,08,09,10,11,12,1.0,1.0,1.0*30
$GPRMC,091647.000,A,4741.729,N,00915.985,E,013.6,304.5,210618,000.0,W*7E
$GPGGA,091648.000,4741.732,N,00915.981,E,1,12,1.0,0.0,M,0.0,M,,*61
$GPGSA,A,3,01,02,03,04,05,06,07,08,09,10,11,12,1.0,1.0,1.0*30
$GPRMC,091648.000,A,4741.732,N,00915.981,E,013.6,304.5,210618,000.0,W*7F
$GPGGA,091649.000,4741.735,N,00915.977,E,1,12,1.0,0.0,M,0.0,M,,*6E
$GPGSA,A,3,01,02,03,04,05,06,07,08,09,10,11,12,1.0,1.0,1.0*30
$GPRMC,091649.000,A,4741.735,N,00915.977,E,013.6,304.5,210618,000.0,W*70
$GPGGA,091650.000,4741.737,N,00915.974,E,1,12,1.0,0.0,M,0.0,M,,*67
$GPGSA,A,3,01,02,03,04,05,06,07,08,09,10,11,12,1.0,1.0,1.0*30
$GPRMC,091650.000,A,4741.737,N,00915.974,E,013.6,292.0,210618,000.0,W*72
$GPGGA,091651.000,4741.739,N,00915.969,E,1,12,1.0,0.0,M,0.0,M,,*64
$GPGSA,A,3,01,02,03,04,05,06,07,08,09,10,11,12,1.0,1.0,1.0*30
$GPRMC,091651.000,A,4741.739,N,00915.969,E,013.6,292.0,210618,000.0,W*71
$GPGGA,091652.000,4741.741,N,00915.964,E,1,12,1.0,0.0,M,0.0,M,,*65
$GPGSA,A,3,01,02,03,04,05,06,07,08,09,10,11,12,1.0,1.0,1.0*30
$GPRMC,091652.000,A,4741.741,N,00915.964,E,013.6,264.7,210618,000.0,W*7E
$GPGGA,091653.000,4741.741,N,00915.958,E,1,12,1.0,0.0,M,0.0,M,,*6B
$GPGSA,A,3,01,02,03,04,05,06,07,08,09,10,11,12,1.0,1.0,1.0*30
$GPRMC,091653.000,A,4741.741,N,00915.958,E,013.6,251.2,210618,000.0,W*73
$GPGGA,091654.000,4741.739,N,00915.953,E,1,12,1.0,0.0,M,0.0,M,,*68
$GPGSA,A,3,01,02,03,04,05,06,07,08,09,10,11,12,1.0,1.0,1.0*30
$GPRMC,091654.000,A,4741.739,N,00915.953,E,013.6,226.3,210618,000.0,W*71
$GPGGA,091655.000,4741.736,N,00915.950,E,1,12,1.0,0.0,M,0.0,M,,*65
$GPGSA,A,3,01,02,03,04,05,06,07,08,09,10,11,12,1.0,1.0,1.0*30
$GPRMC,091655.000,A,4741.736,N,00915.950,E,013.6,186.0,210618,000.0,W*76
$GPGGA,091656.000,4741.732,N,00915.950,E,1,12,1.0,0.0,M,0.0,M,,*62
$GPGSA,A,3,01,02,03,04,05,06,07,08,09,10,11,12,1.0,1.0,1.0*30
$GPRMC,091656.000,A,4741.732,N,00915.950,E,013.6,154.4,210618,000.0,W*7A
$GPGGA,091657.000,4741.728,N,00915.951,E,1,12,1.0,0.0,M,0.0,M,,*69
$GPGSA,A,3,01,02,03,04,05,06,07,08,09,10,11,12,1.0,1.0,1.0*30
$GPRMC,091657.000,A,4741.728,N,00915.951,E,013.6,120.2,210618,000.0,W*74
$GPGGA,091658.000,4741.726,N,00915.956,E,1,12,1.0,0.0,M,0.0,M,,*6F
$GPGSA,A,3,01,02,03,04,05,06,07,08,09,10,11,12,1.0,1.0,1.0*30
$GPRMC,091658.000,A,4741.726,N,00915.956,E,013.6,107.0,210618,000.0,W*75
$GPGGA,091659.000,4741.724,N,00915.961,E,1,12,1.0,0.0,M,0.0,M,,*68
$GPGSA,A,3,01,02,03,04,05,06,07,08,09,10,11,12,1.0,1.0,1.0*30
$GPRMC,091659.000,A,4741.724,N,00915.961,E,013.6,107.0,210618,000.0,W*72
$GPGGA,091700.000,4741.723,N,00915.966,E,1,12,1.0,0.0,M,0.0,M,,*65
$GPGSA,A,3,01,02,03,04,05,06,07,08,09,10,11,12,1.0,1.0,1.0*30
$GPRMC,091700.000,A,4741.723,N,00915.966,E,013.6,107.0,210618,000.0,W*7F
$GPGGA,091701.000,4741.721,N,00915.971,E,1,12,1.0,0.0,M,0.0,M,,*60
$GPGSA,A,3,01,02,03,04,05,06,07,08,09,10,11,12,1.0,1.0,1.0*30
$GPRMC,091701.000,A,4741.721,N,00915.971,E,013.6,107.0,210618,000.0,W*7A
$GPGGA,091702.000,4741.720,N,00915.976,E,1,12,1.0,0.0,M,0.0,M,,*65
$GPGSA,A,3,01,02,03,04,05,06,07,08,09,10,11,12,1.0,1.0,1.0*30
$GPRMC,091702.000,A,4741.720,N,00915.976,E,013.6,111.6,210618,000.0,W*7E
$GPGGA,091703.000,4741.718,N,00915.981,E,1,12,1.0,0.0,M,0.0,M,,*67
$GPGSA,A,3,01,02,03,04,05,06,07,08,09,10,11,12,1.0,1.0,1.0*30
$GPRMC,091703.000,A,4741.718,N,00915.981,E,013.6,111.6,210618,000.0,W*7C
$GPGGA,091704.000,4741.716,N,00915.986,E,1,12,1.0,0.0,M,0.0,M,,*69
$GPGSA,A,3,01,02,03,04,05,06,07,08,09,10,11,12,1.0,1.0,1.0*30
$GPRMC,091704.000,A,4741.716,N,00915.986,E,013.6,116.9,210618,000.0,W*7A
$GPGGA,091705.000,4741.714,N,00915.990,E,1,12,1.0,0.0,M,0.0,M,,*6D
$GPGSA,A,3,01,02,03,04,05,06,07,08,09,10,11,12,1.0,1.0,1.0*30
$GPRMC,091705.000,A,4741.714,N,00915.990,E,013.6,116.9,210618,000.0,W*7E
$GPGGA,091706.000,4741.711,N,00915.995,E,1,12,1.0,0.0,M,0.0,M,,*6E
$GPGSA,A,3,01,02,03,04,05,06,07,08,09,10,11,12,1.0,1.0,1.0*30
$GPRMC,091706.000,A,4741.711,N,00915.995,E,013.6,116.9,210618,000.0,W*7D
$GPGGA,091707.000,4741.709,N,00915.999,E,1,12,1.0,0.0,M,0.0,M,,*6A
$GPGSA,A,3,01,02,03,04,05,06,07,08,09,10,11,12,1.0,1.0,1.0*30
$GPRMC,091707.000,A,4741.709,N,00915.999,E,013.6,116.9,210618,000.0,W*79
$GPGGA,091708.000,4741.707,N,00916.004,E,1,12,1.0,0.0,M,0.0,M,,*65
$GPGSA,A,3,01,02,03,04,05,06,07,08,09,10,11,12,1.0,1.0,1.0*30
$GPRMC,091708.000,A,4741.707,N,00916.004,E,013.6,116.9,210618,000.0,W*76
$GPGGA,091709.000,4741.705,N,00916.008,E,1,12,1.0,0.0,M,0.0,M,,*6A
$GPGSA,A,3,01,02,03,04,05,06,07,08,09,10,11,12,1.0,1.0,1.0*30
$GPRMC,091709.000,A,4741.705,N,00916.008,E,013.6,116.9,210618,000.0,W*79
$GPGGA,091710.000,4741.702,N,00916.013,E,1,12,1.0,0.0,M,0.0,M,,*6F
$GPGSA,A,3,01,02,03,04,05,06,07,08,09,10,11,12,1.0,1.0,1.0*30
$GPRMC,091710.000,A,4741.702,N,00916.013,E,013.6,116.9,210618,000.0,W*7C
$GPGGA,091711.000,4741.700,N,00916.017,E,1,12,1.0,0.0,M,0.0,M,,*68
$GPGSA,A,3,01,02,03,04,05,06,07,08,09,10,11,12,1.0,1.0,1.0*30
$GPRMC,091711.000,A,4741.700,N,00916.017,E,013.6,120.1,210618,000.0,W*76
$GPGGA,091712.000,4741.698,N,00916.021,E,1,12,1.0,0.0,M,0.0,M,,*6E
$GPGSA,A,3,01,02,03,04,05,06,07,08,09,10,11,12,1.0,1.0,1.0*30
$GPRMC,091712.000,A,4741.698,N,00916.021,E,013.6,120.1,210618,000.0,W*70
$GPGGA,091713.000,4741.695,N,00916.026,E,1,12,1.0,0.0,M,0.0,M,,*65
$GPGSA,A,3,01,02,03,04,05,06,07,08,09,10,11,12,1.0,1.0,1.0*30
$GPRMC,091713.000,A,4741.695,N,00916.026,E,013.6,120.1,210618,000.0,W*7B
$GPGGA,091714.000,4741.693,N,00916.030,E,1,12,1.0,0.0,M,0.0,M,,*63
$GPGSA,A,3,01,02,03,04,05,06,07,08,09,10,11,12,1.0,1.0,1.0*30
$GPRMC,091714.000,A,4741.693,N,00916.030,E,013.6,120.1,210618,000.0,W*7D
$GPGGA,091715.000,4741.690,N,00916.034,E,1,12,1.0,0.0,M,0.0,M,,*65
$GPGSA,A,3,01,02,03,04,05,06,07,08,09,10,11,12,1.0,1.0,1.0*30
$GPRMC,091715.000,A,4741.690,N,00916.034,E,013.6,120.1,210618,000.0,W*7B
$GPGGA,091716.000,4741.688,N,00916.039,E,1,12,1.0,0.0,M,0.0,M,,*62
$GPGSA,A,3,01,02,03,04,05,06,07,08,09,10,11,12,1.0,1.0,1.0*30
$GPRMC,091716.000,A,4741.688,N,00916.039,E,013.6,120.1,210618,000.0,W*7C
$GPGGA,091717.000,4741.685,N,00916.043,E,1,12,1.0,0.0,M,0.0,M,,*63
$GPGSA,A,3,01,02,03,04,05,06,07,08,09,10,11,12,1.0,1.0,1.0*30
$GPRMC,091717.000,A,4741.685,N,00916.043,E,013.6,120.1,210618,000.0,W*7D
$GPGGA,091718.000,4741.683,N,00916.047,E,1,12,1.0,0.0,M,0.0,M,,*6E
$GPGSA,A,3,01,02,03,04,05,06,07,08,09,10,11,12,1.0,1.0,1.0*30
$GPRMC,091718.000,A,4741.683,N,00916.047,E,013.6,120.1,210618,000.0,W*70
$GPGGA,091719.000,4741.680,N,00916.051,E,1,12,1.0,0.0,M,0.0,M,,*6B
$GPGSA,A,3,01,02,03,04,05,06,07,08,09,10,11,12,1.0,1.0,1.0*30
$GPRMC,091719.000,A,4741.680,N,00916.051,E,013.6,120.1,210618,000.0,W*75
$GPGGA,091720.000,4741.678,N,00916.056,E,1,12,1.0,0.0,M,0.0,M,,*61
$GPGSA,A,3,01,02,03,04,05,06,07,08,09,10,11,12,1.0,1.0,1.0*30
$GPRMC,091720.000,A,4741.678,N,00916.056,E,013.6,120.8,210618,000.0,W*76
$GPGGA,091721.000,4741.675,N,00916.060,E,1,12,1.0,0.0,M,0.0,M,,*68
$GPGSA,A,3,01,02,03,04,05,06,07,08,09,10,11,12,1.0,1.0,1.0*30
$GPRMC,091721.000,A,4741.675,N,00916.060,E,013.6,120.8,210618,000.0,W*7F
$GPGGA,091722.000,4741.673,N,00916.064,E,1,12,1.0,0.0,M,0.0,M,,*69
$GPGSA,A,3,01,02,03,04,05,06,07,08,09,10,11,12,1.0,1.0,1.0*30
$GPRMC,091722.000,A,4741.673,N,00916.064,E,013.6,120.8,210618,000.0,W*7E
$GPGGA,091723.000,4741.670,N,00916.068,E,1,12,1.0,0.0,M,0.0,M,,*67
$GPGSA,A,3,01,02,03,04,05,06,07,08,09,10,11,12,1.0,1.0,1.0*30
$GPRMC,091723.000,A,4741.670,N,00916.068,E,013.6,120.8,210618,000.0,W*70
$GPGGA,091724.000,4741.668,N,00916.072,E,1,12,1.0,0.0,M,0.0,M,,*62
$GPGSA,A,3,01,02,03,04,05,06,07,08,09,10,11,12,1.0,1.0,1.0*30
$GPRMC,091724.000,A,4741.668,N,00916.072,E,013.6,120.8,210618,000.0,W*75
$GPGGA,091725.000,4741.665,N,00916.077,E,1,12,1.0,0.0,M,0.0,M,,*6B
$GPGSA,A,3,01,02,03,04,05,06,07,08,09,10,11,12,1.0,1.0,1.0*30
$GPRMC,091725.000,A,4741.665,N,00916.077,E,013.6,120.8,210618,000.0,W*7C
$GPGGA,091726.000,4741.663,N,00916.081,E,1,12,1.0,0.0,M,0.0,M,,*67
$GPGSA,A,3,01,02,03,04,05,06,07,08,09,10,11,12,1.0,1.0,1.0*30
$GPRMC,091726.000,A,4741.663,N,00916.081,E,013.6,120.8,210618,000.0,W*70
$GPGGA,091727.000,4741.660,N,00916.085,E,1,12,1.0,0.0,M,0.0,M,,*61
$GPGSA,A,3,01,02,03,04,05,06,07,08,09,10,11,12,1.0,1.0,1.0*30
$GPRMC,091727.000,A,4741.660,N,00916.085,E,013.6,120.8,210618,000.0,W*76
$GPGGA,091728.000,4741.658,N,00916.089,E,1,12,1.0,0.0,M,0.0,M,,*69
$GPGSA,A,3,01,02,03,04,05,06,07,08,09,10,11,12,1.0,1.0,1.0*30
$GPRMC,091728.000,A,4741.658,N,00916.089,E,013.6,120.8,210618,000.0,W*7E
$GPGGA,091729.000,4741.655,N,00916.093,E,1,12,1.0,0.0,M,0.0,M,,*6E
$GPGSA,A,3,01,02,03,04,05,06,07,08,09,10,11,12,1.0,1.0,1.0*30
$GPRMC,091729.000,A,4741.655,N,00916.093,E,013.6,120.8,210618,000.0,W*79
$GPGGA,091730.000,4741.653,N,00916.098,E,1,12,1.0,0.0,M,0.0,M,,*6B
$GPGSA,A,3,01,02,03,04,05,06,07,08,09,10,11,12,1.0,1.0,1.0*30
$GPRMC,091730.000,A,4741.653,N,00916.098,E,013.6,120.8,210618,000.0,W*7C
$GPGGA,091731.000,4741.650,N,00916.102,E,1,12,1.0,0.0,M,0.0,M,,*6B
$GPGSA,A,3,01,02,03,04,05,06,07,08,09,10,11,12,1.0,1.0,1.0*30
$GPRMC,091731.000,A,4741.650,N,00916.102,E,013.6,130.7,210618,000.0,W*72
$GPGGA,091732.000,4741.647,N,00916.105,E,1,12,1.0,0.0,M,0.0,M,,*69
$GPGSA,A,3,01,02,03,04,05,06,07,08,09,10,11,12,1.0,1.0,1.0*30
$GPRMC,091732.000,A,4741.647,N,00916.105,E,013.6,160.0,210618,000.0,W*72
$GPGGA,091733.000,4741.644,N,00916.107,E,1,12,1.0,0.0,M,0.0,M,,*69
$GPGSA,A,3,01,02,03,04,05,06,07,08,09,10,11,12,1.0,1.0,1.0*30
$GPRMC,091733.000,A,4741.644,N,00916.107,E,013.6,184.3,210618,000.0,W*7B
$GPGGA,091734.000,4741.640,N,00916.106,E,1,12,1.0,0.0,M,0.0,M,,*6B
$GPGSA,A,3,01,02,03,04,05,06,07,08,09,10,11,12,1.0,1.0,1.0*30
$GPRMC,091734.000,A,4741.640,N,00916.106,E,013.6,230.5,210618,000.0,W*73
$GPGGA,091735.000,4741.637,N,00916.103,E,1,12,1.0,0.0,M,0.0,M,,*6F
$GPGSA,A,3,01,02,03,04,05,06,07,08,09,10,11,12,1.0,1.0,1.0*30
$GPRMC,091735.000,A,4741.637,N,00916.103,E,013.6,251.3,210618,000.0,W*76
$GPGGA,091736.000,4741.635,N,00916.098,E,1,12,1.0,0.0,M,0.0,M,,*6D
$GPGSA,A,3,01,02,03,04,05,06,07,08,09,10,11,12,1.0,1.0,1.0*30
$GPRMC,091736.000,A,4741.635,N,00916.098,E,013.6,272.0,210618,000.0,W*76
$GPGGA,091737.000,4741.636,N,00916.092,E,1,12,1.0,0.0,M,0.0,M,,*65
$GPGSA,A,3,01,02,03,04,05,06,07,08,09,10,11,12,1.0,1.0,1.0*30
$GPRMC,091737.000,A,4741.636,N,00916.092,E,013.6,272.0,210618,000.0,W*7E
$GPGGA,091738.000,4741.636,N,00916.087,E,1,12,1.0,0.0,M,0.0,M,,*6E
$GPGSA,A,3,01,02,03,04,05,06,07,08,09,10,11,12,1.0,1.0,1.0*30
$GPRMC,091738.000,A,4741.636,N,00916.087,E,013.6,275.6,210618,000.0,W*74
$GPGGA,091739.000,4741.636,N,00916.081,E,1,12,1.0,0.0,M,0.0,M,,*69
$GPGSA,A,3,01,02,03,04,05,06,07,08,09,10,11,12,1.0,1.0,1.0*30
$GPRMC,091739.000,A,4741.636,N,00916.081,E,013.6,275.6,210618,000.0,W*73
$GPGGA,091740.000,4741.637,N,00916.075,E,1,12,1.0,0.0,M,0.0,M,,*6D
$GPGSA,A,3,01,02,03,04,05,06,07,08,09,10,11,12,1.0,1.0,1.0*30
$GPRMC,091740.000,A,4741.637,N,00916.075,E,013.6,275.6,210618,000.0,W*77
$GPGGA,091741.000,4741.637,N,00916.070,E,1,12,1.0,0.0,M,0.0,M,,*69
$GPGSA,A,3,01,02,03,04,05,06,07,08,09,10,11,12,1.0,1.0,1.0*30
$GPRMC,091741.000,A,4741.637,N,00916.070,E,013.6,275.6,210618,000.0,W*73
$GPGGA,091742.000,4741.638,N,00916.064,E,1,12,1.0,0.0,M,0.0,M,,*60
$GPGSA,A,3,01,02,03,04,05,06,07,08,09,10,11,12,1.0,1.0,1.0*30
$GPRMC,091742.000,A,4741.638,N,00916.064,E,013.6,275.6,210618,000.0,W*7A
$GPGGA,091743.000,4741.638,N,00916.059,E,1,12,1.0,0.0,M,0.0,M,,*6F
$GPGSA,A,3,01,02,03,04,05,06,07,08,09,10,11,12,1.0,1.0,1.0*30
$GPRMC,091743.000,A,4741.638,N,00916.059,E,013.6,275.6,210618,000.0,W*75
$GPGGA,091744.000,4741.639,N,00916.053,E,1,12,1.0,0.0,M,0.0,M,,*63
$GPGSA,A,3,01,02,03,04,05,06,07,08,09,10,11,12,1.0,1.0,1.0*30
$GPRMC,091744.000,A,4741.639,N,00916.053,E,013.6,275.4,210618,000.0,W*7B
$GPGGA,091745.000,4741.640,N,00916.048,E,1,12,1.0,0.0,M,0.0,M,,*66
$GPGSA,A,3,01,02,03,04,05,06,07,08,09,10,11,12,1.0,1.0,1.0*30
$GPRMC,091745.000,A,4741.640,N,00916.048,E,013.6,275.4,210618,000.0,W*7E
$GPGGA,091746.000,4741.640,N,00916.042,E,1,12,1.0,0.0,M,0.0,M,,*6F
$GPGSA,A,3,01,02,03,04,05,06,07,08,09,10,11,12,1.0,1.0,1.0*30
$GPRMC,091746.000,A,4741.640,N,00916.042,E,013.6,275.4,210618,000.0,W*77
$GPGGA,091747.000,4741.641,N,00916.037,E,1,12,1.0,0.0,M,0.0,M,,*6D
$GPGSA,A,3,01,02,03,04,05,06,07,08,09,10,11,12,1.0,1.0,1.0*30
$GPRMC,091747.000,A,4741.641,N,00916.037,E,013.6,275.4,210618,000.0,W*75
$GPGGA,091748.000,4741.641,N,00916.031,E,1,12,1.0,0.0,M,0.0,M,,*64
$GPGSA,A,3,01,02,03,04,05,06,07,08,09,10,11,12,1.0,1.0,1.0*30
$GPRMC,091748.000,A,4741.641,N,00916.031,E,013.6,275.4,210618,000.0,W*7C
$GPGGA,091749.000,4741.642,N,00916.025,E,1,12,1.0,0.0,M,0.0,M,,*63
$GPGSA,A,3,01,02,03,04,05,06,07,08,09,10,11,12,1.0,1.0,1.0*30
$GPRMC,091749.000,A,4741.642,N,00916.025,E,013.6,275.4,210618,000.0,W*7B
$GPGGA,091750.000,4741.642,N,00916.020,E,1,12,1.0,0.0,M,0.0,M,,*6E
$GPGSA,A,3,01,02,03,04,05,06,07,08,09,10,11,12,1.0,1.0,1.0*30
$GPRMC,091750.000,A,4741.642,N,00916.020,E,013.6,278.3,210618,000.0,W*7C
$GPGGA,091751.000,4741.643,N,00916.014,E,1,12,1.0,0.0,M,0.0,M,,*69
$GPGSA,A,3,01,02,03,04,05,06,07,08,09,10,11,12,1.0,1.0,1.0*30
$GPRMC,091751.000,A,4741.643,N,00916.014,E,013.6,278.3,210618,000.0,W*7B
$GPGGA,091752.000,4741.644,N,00916.009,E,1,12,1.0,0.0,M,0.0,M,,*61
$GPGSA,A,3,01,02,03,04,05,06,07,08,09,10,11,12,1.0,1.0,1.0*30
$GPRMC,091752.000,A,4741.644,N,00916.009,E,013.6,278.3,210618,000.0,W*73
$GPGGA,091753.000,4741.645,N,00916.003,E,1,12,1.0,0.0,M,0.0,M,,*6B
$GPGSA,A,3,01,02,03,04,05,06,07,08,09,10,11,12,1.0,1.0,1.0*30
$GPRMC,091753.000,A,4741.645,N,00916.003,E,013.6,277.1,210618,000.0,W*74
$GPGGA,091754.000,4741.645,N,00915.998,E,1,12,1.0,0.0,M,0.0,M,,*64
$GPGSA,A,3,01,02,03,04,05,06,07,08,09,10,11,12,1.0,1.0,1.0*30
$GPRMC,091754.000,A,4741.645,N,00915.998,E,013.6,277.1,210618,000.0,W*7B
$GPGGA,091755.000,4741.646,N,00915.992,E,1,12,1.0,0.0,M,0.0,M,,*6C
$GPGSA,A,3,01,02,03,04,05,06,07,08,09,10,11,12,1.0,1.0,1.0*30
$GPRMC,091755.000,A,4741.646,N,00915.992,E,013.6,268.6,210618,000.0,W*7A
$GPGGA,091756.000,4741.646,N,00915.987,E,1,12,1.0,0.0,M,0.0,M,,*6B
$GPGSA,A,3,01,02,03,04,05,06,07,08,09,10,11,12,1.0,1.0,1.0*30
$GPRMC,091756.000,A,4741.646,N,00915.987,E,013.6,268.6,210618,000.0,W*7D
$GPGGA,091757.000,4741.646,N,00915.981,E,1,12,1.0,0.0,M,0.0,M,,*6C
$GPGSA,A,3,01,02,03,04,05,06,07,08,09,10,11,12,1.0,1.0,1.0*30
$GPRMC,091757.000,A,4741.646,N,00915.981,E,013.6,260.7,210618,000.0,W*73
$GPGGA,091758.000,4741.645,N,00915.976,E,1,12,1.0,0.0,M,0.0,M,,*68
$GPGSA,A,3,01,02,03,04,05,06,07,08,09,10,11,12,1.0,1.0,1.0*30
$GPRMC,091758.000,A,4741.645,N,00915.976,E,013.6,260.7,210618,000.0,W*77
$GPGGA,091759.000,4741.644,N,00915.970,E,1,12,1.0,0.0,M,0.0,M,,*6E
$GPGSA,A,3,01,02,03,04,05,06,07,08,09,10,11,12,1.0,1.0,1.0*30
$GPRMC,091759.000,A,4741.644,N,00915.970,E,013.6,274.2,210618,000.0,W*71
$GPGGA,091800.000,4741.644,N,00915.965,E,1,12,1.0,0.0,M,0.0,M,,*69
$GPGSA,A,3,01,02,03,04,05,06,07,08,09,10,11,12,1.0,1.0,1.0*30
$GPRMC,091800.000,A,4741.644,N,00915.965,E,013.6,274.2,210618,000.0,W*76
$GPGGA,091801.000,4741.645,N,00915.959,E,1,12,1.0,0.0,M,0.0,M,,*66
$GPGSA,A,3,01,02,03,04,05,06,07,08,09,10,11,12,1.0,1.0,1.0*30
$GPRMC,091801.000,A,4741.645,N,00915.959,E,013.6,274.2,210618,000.0,W*79
$GPGGA,091802.000,4741.645,N,00915.954,E,1,12,1.0,0.0,M,0.0,M,,*68
$GPGSA,A,3,01,02,03,04,05,06,07,08,09,10,11,12,1.0,1.0,1.0*30
$GPRMC,091802.000,A,4741.645,N,00915.954,E,013.6,282.7,210618,000.0,W*7B
$GPGGA,091803.000,4741.646,N,00915.948,E,1,12,1.0,0.0,M,0.0,M,,*67
$GPGSA,A,3,01,02,03,04,05,06,07,08,09,10,11,12,1.0,1.0,1.0*30
$GPRMC,091803.000,A,4741.646,N,00915.948,E,013.6,282.7,210618,000.0,W*74
$GPGGA,091804.000,4741.648,N,00915.943,E,1,12,1.0,0.0,M,0.0,M,,*65
$GPGSA,A,3,01,02,03,04,05,06,07,08,09,10,11,12,1.0,1.0,1.0*30
$GPRMC,091804.000,A,4741.648,N,00915.943,E,013.6,282.7,210618,000.0,W*76
$GPGGA,091805.000,4741.649,N,00915.938,E,1,12,1.0,0.0,M,0.0,M,,*69
$GPGSA,A,3,01,02,03,04,05,06,07,08,09,10,11,12,1.0,1.0,1.0*30
$GPRMC,091805.000,A,4741.649,N,00915.938,E,013.6,289.8,210618,000.0,W*7E
$GPGGA,091806.000,4741.650,N,00915.933,E,1,12,1.0,0.0,M,0.0,M,,*69
$GPGSA,A,3,01,02,03,04,05,06,07,08,09,10,11,12,1.0,1.0,1.0*30
$GPRMC,091806.000,A,4741.650,N,00915.933,E,013.6,289.8,210618,000.0,W*7E
$GPGGA,091807.000,4741.652,N,00915.928,E,1,12,1.0,0.0,M,0.0,M,,*60
$GPGSA,A,3,01,02,03,04,05,06,07,08,09,10,11,12,1.0,1.0,1.0*30
$GPRMC,091807.000,A,4741.652,N,00915.928,E,013.6,298.7,210618,000.0,W*78
$GPGGA,091808.000,4741.655,N,00915.923,E,1,12,1.0,0.0,M,0.0,M,,*63
$GPGSA,A,3,01,02,03,04,05,06,07,08,09,10,11,12,1.0,1.0,1.0*30
$GPRMC,091808.000,A,4741.655,N,00915.923,E,013.6,298.7,210618,000.0,W*7B
$GPGGA,091809.000,4741.657,N,00915.919,E,1,12,1.0,0.0,M,0.0,M,,*69
$GPGSA,A,3,01,02,03,04,05,06,07,08,09,10,11,12,1.0,1.0,1.0*30
$GPRMC,091809.000,A,4741.657,N,00915.919,E,013.6,298.7,210618,000.0,W*71
$GPGGA,091810.000,4741.659,N,00915.915,E,1,12,1.0,0.0,M,0.0,M,,*63
$GPGSA,A,3,01,02,03,04,05,06,07,08,09,10,11,12,1.0,1.0,1.0*30
$GPRMC,091810.000,A,4741.659,N,00915.915,E,013.6,298.7,210618,000.0,W*7B
$GPGGA,091811.000,4741.662,N,00915.910,E,1,12,1.0,0.0,M,0.0,M,,*6F
$GPGSA,A,3,01,02,03,04,05,06,07,08,09,10,11,12,1.0,1.0,1.0*30
$GPRMC,091811.000,A,4741.662,N,00915.910,E,013.6,298.7,210618,000.0,W*77
$GPGGA,091812.000,4741.664,N,00915.906,E,1,12,1.0,0.0,M,0.0,M,,*6D
$GPGSA,A,3,01,02,03,04,05,06,07,08,09,10,11,12,1.0,1.0,1.0*30
$GPRMC,091812.000,A,4741.664,N,00915.906,E,013.6,309.9,210618,000.0,W*72
$GPGGA,091813.000,4741.667,N,00915.902,E,1,12,1.0,0.0,M,0.0,M,,*6B
$GPGSA,A,3,01,02,03,04,05,06,07,08,09,10,11,12,1.0,1.0,1.0*30
$GPRMC,091813.000,A,4741.667,N,00915.902,E,013.6,309.9,210618,000.0,W*74
$GPGGA,091814.000,4741.670,N,00915.899,E,1,12,1.0,0.0,M,0.0,M,,*69
$GPGSA,A,3,01,02,03,04,05,06,07,08,09,10,11,12,1.0,1.0,1.0*30
$GPRMC,091814.000,A,4741.670,N,00915.899,E,013.6,309.9,210618,000.0,W*76
$GPGGA,091815.000,4741.673,N,00915.895,E,1,12,1.0,0.0,M,0.0,M,,*67
$GPGSA,A,3,01,02,03,04,05,06,07,08,09,10,11,12,1.0,1.0,1.0*30
$GPRMC,091815.000,A,4741.673,N,00915.895,E,013.6,309.9,210618,000.0,W*78
$GPGGA,091816.000,4741.676,N,00915.892,E,1,12,1.0,0.0,M,0.0,M,,*66
$GPGSA,A,3,01,02,03,04,05,06,07,08,09,10,11,12,1.0,1.0,1.0*30
$GPRMC,091816.000,A,4741.676,N,00915.892,E,013.6,320.4,210618,000.0,W*7F
$GPGGA,091817.000,4741.679,N,00915.889,E,1,12,1.0,0.0,M,0.0,M,,*62
$GPGSA,A,3,01,02,03,04,05,06,07,08,09,10,11,12,1.0,1.0,1.0*30
$GPRMC,091817.000,A,4741.679,N,00915.889,E,013.6,312.1,210618,000.0,W*7F
$GPGGA,091818.000,4741.682,N,00915.886,E,1,12,1.0,0.0,M,0.0,M,,*66
$GPGSA,A,3,01,02,03,04,05,06,07,08,09,10,11,12,1.0,1.0,1.0*30
$GPRMC,091818.000,A,4741.682,N,00915.886,E,013.6,312.1,210618,000.0,W*7B
$GPGGA,091819.000,4741.685,N,00915.882,E,1,12,1.0,0.0,M,0.0,M,,*64
$GPGSA,A,3,01,02,03,04,05,06,07,08,09,10,11,12,1.0,1.0,1.0*30
$GPRMC,091819.000,A,4741.685,N,00915.882,E,013.6,312.1,210618,000.0,W*79
$GPGGA,091820.000,4741.688,N,00915.879,E,1,12,1.0,0.0,M,0.0,M,,*67
$GPGSA,A,3,01,02,03,04,05,06,07,08,09,10,11,12,1.0,1.0,1.0*30
$GPRMC,091820.000,A,4741.688,N,00915.879,E,013.6,299.9,210618,000.0,W*70
$GPGGA,091821.000,4741.691,N,00915.875,E,1,12,1.0,0.0,M,0.0,M,,*62
$GPGSA,A,3,01,02,03,04,05,06,07,08,09,10,11,12,1.0,1.0,1.0*30
$GPRMC,091821.000,A,4741.691,N,00915.875,E,013.6,299.9,210618,000.0,W*75
$GPGGA,091822.000,4741.693,N,00915.870,E,1,12,1.0,0.0,M,0.0,M,,*66
$GPGSA,A,3,01,02,03,04,05,06,07,08,09,10,11,12,1.0,1.0,1.0*30
$GPRMC,091822.000,A,4741.693,N,00915.870,E,013.6,299.9,210618,000.0,W*71
$GPGGA,091823.000,4741.696,N,00915.866,E,1,12,1.0,0.0,M,0.0,M,,*65
$GPGSA,A,3,01,02,03,04,05,06,07,08,09,10,11,12,1.0,1.0,1.0*30
$GPRMC,091823.000,A,4741.696,N,00915.866,E,013.6,299.9,210618,000.0,W*72
$GPGGA,091824.000,4741.698,N,00915.862,E,1,12,1.0,0.0,M,0.0,M,,*68
$GPGSA,A,3,01,02,03,04,05,06,07,08,09,10,11,12,1.0,1.0,1.0*30
$GPRMC,091824.000,A,4741.698,N,00915.862,E,013.6,299.9,210618,000.0,W*7F
$GPGGA,091825.000,4741.701,N,00915.858,E,1,12,1.0,0.0,M,0.0,M,,*61
$GPGSA,A,3,01,02,03,04,05,06,07,08,09,10,11,12,1.0,1.0,1.0*30
$GPRMC,091825.000,A,4741.701,N,00915.858,E,013.6,299.9,210618,000.0,W*76
$GPGGA,091826.000,4741.703,N,00915.853,E,1,12,1.0,0.0,M,0.0,M,,*6B
$GPGSA,A,3,01,02,03,04,05,06,07,08,09,10,11,12,1.0,1.0,1.0*30
$GPRMC,091826.000,A,4741.703,N,00915.853,E,013.6,299.9,210618,000.0,W*7C
$GPGGA,091827.000,4741.705,N,00915.849,E,1,12,1.0,0.0,M,0.0,M,,*67
$GPGSA,A,3,01,02,03,04,05,06,07,08,09,10,11,12,1.0,1.0,1.0*30
$GPRMC,091827.000,A,4741.705,N,00915.849,E,013.6,299.9,210618,000.0,W*70
$GPGGA,091828.000,4741.708,N,00915.845,E,1,12,1.0,0.0,M,0.0,M,,*69
$GPGSA,A,3,01,02,03,04,05,06,07,08,09,10,11,12,1.0,1.0,1.0*30
$GPRMC,091828.000,A,4741.708,N,00915.845,E,013.6,299.9,210618,000.0,W*7E
$GPGGA,091829.000,4741.710,N,00915.841,E,1,12,1.0,0.0,M,0.0,M,,*65
$GPGSA,A,3,01,02,03,04,05,06,07,08,09,10,11,12,1.0,1.0,1.0*30
$GPRMC,091829.000,A,4741.710,N,00915.841,E,013.6,299.9,210618,000.0,W*72
$GPGGA,091830.000,4741.713,N,00915.836,E,1,12,1.0,0.0,M,0.0,M,,*6E
$GPGSA,A,3,01,02,03,04,05,06,07,08,09,10,11,12,1.0,1.0,1.0*30
$GPRMC,091830.000,A,4741.713,N,00915.836,E,013.6,299.9,210618,000.0,W*79
$GPGGA,091831.000,4741.715,N,00915.832,E,1,12,1.0,0.0,M,0.0,M,,*6D
$GPGSA,A,3,01,02,03,04,05,06,07,08,09,10,11,12,1.0,1.0,1.0*30
$GPRMC,091831.000,A,4741.715,N,00915.832,E,013.6,286.6,210618,000.0,W*7B
$GPGGA,091832.000,4741.717,N,00915.827,E,1,12,1.0,0.0,M,0.0,M,,*68
$GPGSA,A,3,01,02,03,04,05,06,07,08,09,10,11,12,1.0,1.0,1.0*30
$GPRMC,091832.000,A,4741.717,N,00915.827,E,013.6,286.6,210618,000.0,W*7E
$GPGGA,091833.000,4741.718,N,00915.822,E,1,12,1.0,0.0,M,0.0,M,,*63
$GPGSA,A,3,01,02,03,04,05,06,07,08,09,10,11,12,1.0,1.0,1.0*30
$GPRMC,091833.000,A,4741.718,N,00915.822,E,013.6,286.6,210618,000.0,W*75
$GPGGA,091834.000,4741.720,N,00915.817,E,1,12,1.0,0.0,M,0.0,M,,*69
$GPGSA,A,3,01,02,03,04,05,06,07,08,09,10,11,12,1.0,1.0,1.0*30
$GPRMC,091834.000,A,4741.720,N,00915.817,E,013.6,256.0,210618,000.0,W*74
$GPGGA,091835.000,4741.718,N,00915.811,E,1,12,1.0,0.0,M,0.0,M,,*65
$GPGSA,A,3,01,02,03,04,05,06,07,08,09,10,11,12,1.0,1.0,1.0*30
$GPRMC,091835.000,A,4741.718,N,00915.811,E,013.6,256.0,210618,000.0,W*78
$GPGGA,091836.000,4741.717,N,00915.806,E,1,12,1.0,0.0,M,0.0,M,,*6F
$GPGSA,A,3,01,02,03,04,05,06,07,08,09,10,11,12,1.0,1.0,1.0*30
$GPRMC,091836.000,A,4741.717,N,00915.806,E,013.6,256.0,210618,000.0,W*72
$GPGGA,091837.000,4741.716,N,00915.801,E,1,12,1.0,0.0,M,0.0,M,,*68
$GPGSA,A,3,01,02,03,04,05,06,07,08,09,10,11,12,1.0,1.0,1.0*30
$GPRMC,091837.000,A,4741.716,N,00915.801,E,013.6,256.0,210618,000.0,W*75
$GPGGA,091838.000,4741.715,N,00915.796,E,1,12,1.0,0.0,M,0.0,M,,*65
$GPGSA,A,3,01,02,03,04,05,06,07,08,09,10,11,12,1.0,1.0,1.0*30
$GPRMC,091838.000,A,4741.715,N,00915.796,E,013.6,256.0,210618,000.0,W*78
$GPGGA,091839.000,4741.713,N,00915.790,E,1,12,1.0,0.0,M,0.0,M,,*64
$GPGSA,A,3,01,02,03,04,05,06,07,08,09,10,11,12,1.0,1.0,1.0*30
$GPRMC,091839.000,A,4741.713,N,00915.790,E,013.6,256.0,210618,000.0,W*79
$GPGGA,091840.000,4741.712,N,00915.785,E,1,12,1.0,0.0,M,0.0,M,,*6F
$GPGSA,A,3,01,02,03,04,05,06,07,08,09,10,11,12,1.0,1.0,1.0*30
$GPRMC,091840.000,A,4741.712,N,00915.785,E,013.6,256.0,210618,000.0,W*72
$GPGGA,091841.000,4741.711,N,00915.780,E,1,12,1.0,0.0,M,0.0,M,,*68
$GPGSA,A,3,01,02,03,04,05,06,07,08,09,10,11,12,1.0,1.0,1.0*30
$GPRMC,091841.000,A,4741.711,N,00915.780,E,013.6,256.0,210618,000.0,W*75
$GPGGA,091842.000,4741.709,N,00915.774,E,1,12,1.0,0.0,M,0.0,M,,*69
$GPGSA,A,3,01,02,03,04,05,06,07,08,09,10,11,12,1.0,1.0,1.0*30
$GPRMC,091842.000,A,4741.709,N,00915.774,E,013.6,256.0,210618,000.0,W*74
$GPGGA,091843.000,4741.708,N,00915.769,E,1,12,1.0,0.0,M,0.0,M,,*65
$GPGSA,A,3,01,02,03,04,05,06,07,08,09,10,11,12,1.0,1.0,1.0*30
$GPRMC,091843.000,A,4741.708,N,00915.769,E,013.6,256.0,210618,000.0,W*78
$GPGGA,091844.000,4741.707,N,00915.764,E,1,12,1.0,0.0,M,0.0,M,,*60
$GPGSA,A,3,01,02,03,04,05,06,07,08,09,10,11,12,1.0,1.0,1.0*30
$GPRMC,091844.000,A,4741.707,N,00915.764,E,013.6,256.0,210618,000.0,W*7D
$GPGGA,091845.000,4741.705,N,00915.759,E,1,12,1.0,0.0,M,0.0,M,,*6D
$GPGSA,A,3,01,02,03,04,05,06,07,08,09,10,11,12,1.0,1.0,1.0*30
$GPRMC,091845.000,A,4741.705,N,00915.759,E,013.6,256.0,210618,000.0,W*70
$GPGGA,091846.000,4741.704,N,00915.753,E,1,12,1.0,0.0,M,0.0,M,,*65
$GPGSA,A,3,01,02,03,04,05,06,07,08,09,10,11,12,1.0,1.0,1.0*30
$GPRMC,091846.000,A,4741.704,N,00915.753,E,013.6,256.0,210618,000.0,W*78
$GPGGA,091847.000,4741.703,N,00915.748,E,1,12,1.0,0.0,M,0.0,M,,*69
$GPGSA,A,3,01,02,03,04,05,06,07,08,09,10,11,12,1.0,1.0,1.0*30
$GPRMC,091847.000,A,4741.703,N,00915.748,E,013.6,256.0,210618,000.0,W*74
$GPGGA,091848.000,4741.702,N,00915.743,E,1,12,1.0,0.0,M,0.0,M,,*6C
$GPGSA,A,3,01,02,03,04,05,06,07,08,09,10,11,12,1.0,1.0,1.0*30
$GPRMC,091848.000,A,4741.702,N,00915.743,E,013.6,256.0,210618,000.0,W*71
$GPGGA,091849.000,4741.700,N,00915.738,E,1,12,1.0,0.0,M,0.0,M,,*63
$GPGSA,A,3,01,02,03,04,05,06,07,08,09,10,11,12,1.0,1.0,1.0*30
$GPRMC,091849.000,A,4741.700,N,00915.738,E,013.6,256.0,210618,000.0,W*7E
$GPGGA,091850.000,4741.699,N,00915.732,E,1,12,1.0,0.0,M,0.0,M,,*60
$GPGSA,A,3,01,02,03,04,05,06,07,08,09,10,11,12,1.0,1.0,1.0*30
$GPRMC,091850.000,A,4741.699,N,00915.732,E,013.6,256.0,210618,000.0,W*7D
$GPGGA,091851.000,4741.698,N,00915.727,E,1,12,1.0,0.0,M,0.0,M,,*64
$GPGSA,A,3,01,02,03,04,05,06,07,08,09,10,11,12,1.0,1.0,1.0*30
$GPRMC,091851.000,A,4741.698,N,00915.727,E,013.6,256.0,210618,000.0,W*79
$GPGGA,091852.000,4741.696,N,00915.722,E,1,12,1.0,0.0,M,0.0,M,,*6C
$GPGSA,A,3,01,02,03,04,05,06,07,08,09,10,11,12,1.0,1.0,1.0*30
$GPRMC,091852.000,A,4741.696,N,00915.722,E,013.6,256.0,210618,000.0,W*71
$GPGGA,091853.000,4741.695,N,00915.717,E,1,12,1.0,0.0,M,0.0,M,,*68
$GPGSA,A,3,01,02,03,04,05,06,07,08,09,10,11,12,1.0,1.0,1.0*30
$GPRMC,091853.000,A,4741.695,N,00915.717,E,013.6,256.0,210618,000.0,W*75
$GPGGA,091854.000,4741.694,N,00915.711,E,1,12,1.0,0.0,M,0.0,M,,*68
$GPGSA,A,3,01,02,03,04,05,06,07,08,09,10,11,12,1.0,1.0,1.0*30
$GPRMC,091854.000,A,4741.694,N,00915.711,E,013.6,256.0,210618,000.0,W*75
$GPGGA,091855.000,4741.692,N,00915.706,E,1,12,1.0,0.0,M,0.0,M,,*69
$GPGSA,A,3,01,02,03,04,05,06,07,08,09,10,11,12,1.0,1.0,1.0*30
$GPRMC,091855.000,A,4741.692,N,00915.706,E,013.6,256.0,210618,000.0,W*74
$GPGGA,091856.000,4741.691,N,00915.701,E,1,12,1.0,0.0,M,0.0,M,,*6E
$GPGSA,A,3,01,02,03,04,05,06,07,08,09,10,11,12,1.0,1.0,1.0*30
$GPRMC,091856.000,A,4741.691,N,00915.701,E,013.6,256.0,210618,000.0,W*73
$GPGGA,091857.000,4741.690,N,00915.695,E,1,12,1.0,0.0,M,0.0,M,,*62
$GPGSA,A,3,01,02,03,04,05,06,07,08,09,10,11,12,1.0,1.0,1.0*30
$GPRMC,091857.000,A,4741.690,N,00915.695,E,013.6,256.0,210618,000.0,W*7F
$GPGGA,091858.000,4741.688,N,00915.690,E,1,12,1.0,0.0,M,0.0,M,,*61
$GPGSA,A,3,01,02,03,04,05,06,07,08,09,10,11,12,1.0,1.0,1.0*30
$GPRMC,091858.000,A,4741.688,N,00915.690,E,013.6,256.0,210618,000.0,W*7C
$GPGGA,091859.000,4741.687,N,00915.685,E,1,12,1.0,0.0,M,0.0,M,,*6B
$GPGSA,A,3,01,02,03,04,05,06,07,08,09,10,11,12,1.0,1.0,1.0*30
$GPRMC,091859.000,A,4741.687,N,00915.685,E,013.6,256.0,210618,000.0,W*76
$GPGGA,091900.000,4741.686,N,00915.680,E,1,12,1.0,0.0,M,0.0,M,,*62
$GPGSA,A,3,01,02,03,04,05,06,07,08,09,10,11,12,1.0,1.0,1.0*30
$GPRMC,091900.000,A,4741.686,N,00915.680,E,013.6,256.0,210618,000.0,W*7F
$GPGGA,091901.000,4741.685,N,00915.674,E,1,12,1.0,0.0,M,0.0,M,,*6B
$GPGSA,A,3,01,02,03,04,05,06,07,08,09,10,11,12,1.0,1.0,1.0*30
$GPRMC,091901.000,A,4741.685,N,00915.674,E,013.6,256.0,210618,000.0,W*76
$GPGGA,091902.000,4741.683,N,00915.669,E,1,12,1.0,0.0,M,0.0,M,,*62
$GPGSA,A,3,01,02,03,04,05,06,07,08,09,10,11,12,1.0,1.0,1.0*30
$GPRMC,091902.000,A,4741.683,N,00915.669,E,013.6,256.0,210618,000.0,W*7F
$GPGGA,091903.000,4741.682,N,00915.664,E,1,12,1.0,0.0,M,0.0,M,,*6F
$GPGSA,A,3,01,02,03,04,05,06,07,08,09,10,11,12,1.0,1.0,1.0*30
$GPRMC,091903.000,A,4741.682,N,00915.664,E,013.6,256.0,210618,000.0,W*72
$GPGGA,091904.000,4741.681,N,00915.659,E,1,12,1.0,0.0,M,0.0,M,,*65
$GPGSA,A,3,01,02,03,04,05,06,07,08,09,10,11,12,1.0,1.0,1.0*30
$GPRMC,091904.000,A,4741.681,N,00915.659,E,013.6,256.0,210618,000.0,W*78
$GPGGA,091905.000,4741.679,N,00915.653,E,1,12,1.0,0.0,M,0.0,M,,*69
$GPGSA,A,3,01,02,03,04,05,06,07,08,09,10,11,12,1.0,1.0,1.0*30
$GPRMC,091905.000,A,4741.679,N,00915.653,E,013.6,256.0,210618,000.0,W*74
$GPGGA,091906.000,4741.678,N,00915.648,E,1,12,1.0,0.0,M,0.0,M,,*61
$GPGSA,A,3,01,02,03,04,05,06,07,08,09,10,11,12,1.0,1.0,1.0*30
$GPRMC,091906.000,A,4741.678,N,00915.648,E,013.6,256.0,210618,000.0,W*7C
$GPGGA,091907.000,4741.677,N,00915.643,E,1,12,1.0,0.0,M,0.0,M,,*64
$GPGSA,A,3,01,02,03,04,05,06,07,08,09,10,11,12,1.0,1.0,1.0*30
$GPRMC,091907.000,A,4741.677,N,00915.643,E,013.6,256.0,210618,000.0,W*79
$GPGGA,091908.000,4741.675,N,00915.638,E,1,12,1.0,0.0,M,0.0,M,,*65
$GPGSA,A,3,01,02,03,04,05,06,07,08,09,10,11,12,1.0,1.0,1.0*30
$GPRMC,091908.000,A,4741.675,N,00915.638,E,013.6,256.0,210618,000.0,W*78
$GPGGA,091909.000,4741.674,N,00915.632,E,1,12,1.0,0.0,M,0.0,M,,*6F
$GPGSA,A,3,01,02,03,04,05,06,07,08,09,10,11,12,1.0,1.0,1.0*30
$GPRMC,091909.000,A,4741.674,N,00915.632,E,013.6,256.0,210618,000.0,W*72
$GPGGA,091910.000,4741.673,N,00915.627,E,1,12,1.0,0.0,M,0.0,M,,*64
$GPGSA,A,3,01,02,03,04,05,06,07,08,09,10,11,12,1.0,1.0,1.0*30
$GPRMC,091910.000,A,4741.673,N,00915.627,E,013.6,256.0,210618,000.0,W*79
$GPGGA,091911.000,4741.671,N,00915.622,E,1,12,1.0,0.0,M,0.0,M,,*62
$GPGSA,A,3,01,02,03,04,05,06,07,08,09,10,11,12,1.0,1.0,1.0*30
$GPRMC,091911.000,A,4741.671,N,00915.622,E,013.6,256.0,210618,000.0,W*7F
$GPGGA,091912.000,4741.670,N,00915.617,E,1,12,1.0,0.0,M,0.0,M,,*66
$GPGSA,A,3,01,02,03,04,05,06,07,08,09,10,11,12,1.0,1.0,1.0*30
$GPRMC,091912.000,A,4741.670,N,00915.617,E,013.6,256.0,210618,000.0,W*7B
$GPGGA,091913.000,4741.669,N,00915.611,E,1,12,1.0,0.0,M,0.0,M,,*69
$GPGSA,A,3,01,02,03,04,05,06,07,08,09,10,11,12,1.0,1.0,1.0*30
$GPRMC,091913.000,A,4741.669,N,00915.611,E,013.6,256.0,210618,000.0,W*74
$GPGGA,091914.000,4741.668,N,00915.606,E,1,12,1.0,0.0,M,0.0,M,,*69
$GPGSA,A,3,01,02,03,04,05,06,07,08,09,10,11,12,1.0,1.0,1.0*30
$GPRMC,091914.000,A,4741.668,N,00915.606,E,013.6,256.0,210618,000.0,W*74
$GPGGA,091915.000,4741.666,N,00915.601,E,1,12,1.0,0.0,M,0.0,M,,*61
$GPGSA,A,3,01,02,03,04,05,06,07,08,09,10,11,12,1.0,1.0,1.0*30
$GPRMC,091915.000,A,4741.666,N,00915.601,E,013.6,256.0,210618,000.0,W*7C
$GPGGA,091916.000,4741.665,N,00915.595,E,1,12,1.0,0.0,M,0.0,M,,*6F
$GPGSA,A,3,01,02,03,04,05,06,07,08,09,10,11,12,1.0,1.0,1.0*30
$GPRMC,091916.000,A,4741.665,N,00915.595,E,013.6,256.0,210618,000.0,W*72
$GPGGA,091917.000,4741.664,N,00915.590,E,1,12,1.0,0.0,M,0.0,M,,*6A
$GPGSA,A,3,01,02,03,04,05,06,07,08,09,10,11,12,1.0,1.0,1.0*30
$GPRMC,091917.000,A,4741.664,N,00915.590,E,013.6,256.0,210618,000.0,W*77
$GPGGA,091918.000,4741.662,N,00915.585,E,1,12,1.0,0.0,M,0.0,M,,*67
$GPGSA,A,3,01,02,03,04,05,06,07,08,09,10,11,12,1.0,1.0,1.0*30
$GPRMC,091918.000,A,4741.662,N,00915.585,E,013.6,256.0,210618,000.0,W*7A
$GPGGA,091919.000,4741.661,N,00915.580,E,1,12,1.0,0.0,M,0.0,M,,*60
$GPGSA,A,3,01,02,03,04,05,06,07,08,09,10,11,12,1.0,1.0,1.0*30
$GPRMC,091919.000,A,4741.661,N,00915.580,E,013.6,256.0,210618,000.0,W*7D
$GPGGA,091920.000,4741.660,N,00915.574,E,1,12,1.0,0.0,M,0.0,M,,*60
$GPGSA,A,3,01,02,03,04,05,06,07,08,09,10,11,12,1.0,1.0,1.0*30
$GPRMC,091920.000,A,4741.660,N,00915.574,E,013.6,256.0,210618,000.0,W*7D
$GPGGA,091921.000,4741.658,N,00915.569,E,1,12,1.0,0.0,M,0.0,M,,*66
$GPGSA,A,3,01,02,03,04,05,06,07,08,09,10,11,12,1.0,1.0,1.0*30
$GPRMC,091921.000,A,4741.658,N,00915.569,E,013.6,256.0,210618,000.0,W*7B
$GPGGA,091922.000,4741.657,N,00915.564,E,1,12,1.0,0.0,M,0.0,M,,*67
$GPGSA,A,3,01,02,03,04,05,06,07,08,09,10,11,12,1.0,1.0,1.0*30
$GPRMC,091922.000,A,4741.657,N,00915.564,E,013.6,256.0,210618,000.0,W*7A
$GPGGA,091923.000,4741.656,N,00915.559,E,1,12,1.0,0.0,M,0.0,M,,*69
$GPGSA,A,3,01,02,03,04,05,06,07,08,09,10,11,12,1.0,1.0,1.0*30
$GPRMC,091923.000,A,4741.656,N,00915.559,E,013.6,256.0,210618,000.0,W*74
$GPGGA,091924.000,4741.655,N,00915.553,E,1,12,1.0,0.0,M,0.0,M,,*67
$GPGSA,A,3,01,02,03,04,05,06,07,08,09,10,11,12,1.0,1.0,1.0*30
$GPRMC,091924.000,A,4741.655,N,00915.553,E,013.6,256.0,210618,000.0,W*7A
$GPGGA,091925.000,4741.653,N,00915.548,E,1,12,1.0,0.0,M,0.0,M,,*6A
$GPGSA,A,3,01,02,03,04,05,06,07,08,09,10,11,12,1.0,1.0,1.0*30
$GPRMC,091925.000,A,4741.653,N,00915.548,E,013.6,256.0,210618,000.0,W*77
$GPGGA,091926.000,4741.652,N,00915.543,E,1,12,1.0,0.0,M,0.0,M,,*63
$GPGSA,A,3,01,02,03,04,05,06,07,08,09,10,11,12,1.0,1.0,1.0*30
$GPRMC,091926.000,A,4741.652,N,00915.543,E,013.6,256.0,210618,000.0,W*7E
$GPGGA,091927.000,4741.651,N,00915.538,E,1,12,1.0,0.0,M,0.0,M,,*6D
$GPGSA,A,3,01,02,03,04,05,06,07,08,09,10,11,12,1.0,1.0,1.0*30
$GPRMC,091927.000,A,4741.651,N,00915.538,E,013.6,256.0,210618,000.0,W*70
$GPGGA,091928.000,4741.649,N,00915.532,E,1,12,1.0,0.0,M,0.0,M,,*61
$GPGSA,A,3,01,02,03,04,05,06,07,08,09,10,11,12,1.0,1.0,1.0*30
$GPRMC,091928.000,A,4741.649,N,00915.532,E,013.6,256.0,210618,000.0,W*7C
$GPGGA,091929.000,4741.648,N,00915.527,E,1,12,1.0,0.0,M,0.0,M,,*65
$GPGSA,A,3,01,02,03,04,05,06,07,08,09,10,11,12,1.0,1.0,1.0*30
$GPRMC,091929.000,A,4741.648,N,00915.527,E,013.6,256.0,210618,000.0,W*78
$GPGGA,091930.000,4741.647,N,00915.522,E,1,12,1.0,0.0,M,0.0,M,,*67
$GPGSA,A,3,01,02,03,04,05,06,07,08,09,10,11,12,1.0,1.0,1.0*30
$GPRMC,091930.000,A,4741.647,N,00915.522,E,013.6,256.0,210618,000.0,W*7A
$GPGGA,091931.000,4741.645,N,00915.516,E,1,12,1.0,0.0,M,0.0,M,,*63
$GPGSA,A,3,01,02,03,04,05,06,07,08,09,10,11,12,1.0,1.0,1.0*30
$GPRMC,091931.000,A,4741.645,N,00915.516,E,013.6,256.0,210618,000.0,W*7E
$GPGGA,091932.000,4741.644,N,00915.511,E,1,12,1.0,0.0,M,0.0,M,,*66
$GPGSA,A,3,01,02,03,04,05,06,07,08,09,10,11,12,1.0,1.0,1.0*30
$GPRMC,091932.000,A,4741.644,N,00915.511,E,013.6,256.0,210618,000.0,W*7B
$GPGGA,091933.000,4741.643,N,00915.506,E,1,12,1.0,0.0,M,0.0,M,,*66
$GPGSA,A,3,01,02,03,04,05,06,07,08,09,10,11,12,1.0,1.0,1.0*30
$GPRMC,091933.000,A,4741.643,N,00915.506,E,013.6,256.0,210618,000.0,W*7B
$GPGGA,091934.000,4741.641,N,00915.501,E,1,12,1.0,0.0,M,0.0,M,,*64
$GPGSA,A,3,01,02,03,04,05,06,07,08,09,10,11,12,1.0,1.0,1.0*30
$GPRMC,091934.000,A,4741.641,N,00915.501,E,013.6,256.0,210618,000.0,W*79
$GPGGA,091935.000,4741.640,N,00915.495,E,1,12,1.0,0.0,M,0.0,M,,*68
$GPGSA,A,3,01,02,03,04,05,06,07,08,09,10,11,12,1.0,1.0,1.0*30
$GPRMC,091935.000,A,4741.640,N,00915.495,E,013.6,256.0,210618,000.0,W*75
$GPGGA,091936.000,4741.639,N,00915.490,E,1,12,1.0,0.0,M,0.0,M,,*60
$GPGSA,A,3,01,02,03,04,05,06,07,08,09,10,11,12,1.0,1.0,1.0*30
$GPRMC,091936.000,A,4741.639,N,00915.490,E,013.6,256.0,210618,000.0,W*7D
$GPGGA,091937.000,4741.638,N,00915.485,E,1,12,1.0,0.0,M,0.0,M,,*64
$GPGSA,A,3,01,02,03,04,05,06,07,08,09,10,11,12,1.0,1.0,1.0*30
$GPRMC,091937.000,A,4741.638,N,00915.485,E,013.6,256.0,210618,000.0,W*79
$GPGGA,091938.000,4741.636,N,00915.480,E,1,12,1.0,0.0,M,0.0,M,,*60
$GPGSA,A,3,01,02,03,04,05,06,07,08,09,10,11,12,1.0,1.0,1.0*30
$GPRMC,091938.000,A,4741.636,N,00915.480,E,013.6,256.0,210618,000.0,W*7D
$GPGGA,091939.000,4741.635,N,00915.474,E,1,12,1.0,0.0,M,0.0,M,,*69
$GPGSA,A,3,01,02,03,04,05,06,07,08,09,10,11,12,1.0,1.0,1.0*30
$GPRMC,091939.000,A,4741.635,N,00915.474,E,013.6,256.0,210618,000.0,W*74
$GPGGA,091940.000,4741.634,N,00915.469,E,1,12,1.0,0.0,M,0.0,M,,*6A
$GPGSA,A,3,01,02,03,04,05,06,07,08,09,10,11,12,1.0,1.0,1.0*30
$GPRMC,091940.000,A,4741.634,N,00915.469,E,013.6,256.0,210618,000.0,W*77
$GPGGA,091941.000,4741.632,N,00915.464,E,1,12,1.0,0.0,M,0.0,M,,*60
$GPGSA,A,3,01,02,03,04,05,06,07,08,09,10,11,12,1.0,1.0,1.0*30
$GPRMC,091941.000,A,4741.632,N,00915.464,E,013.6,256.0,210618,000.0,W*7D
$GPGGA,091942.000,4741.631,N,00915.459,E,1,12,1.0,0.0,M,0.0,M,,*6E
$GPGSA,A,3,01,02,03,04,05,06,07,08,09,10,11,12,1.0,1.0,1.0*30
$GPRMC,091942.000,A,4741.631,N,00915.459,E,013.6,256.0,210618,000.0,W*73
$GPGGA,091943.000,4741.630,N,00915.453,E,1,12,1.0,0.0,M,0.0,M,,*64
$GPGSA,A,3,01,02,03,04,05,06,07,08,09,10,11,12,1.0,1.0,1.0*30
$GPRMC,091943.000,A,4741.630,N,00915.453,E,013.6,256.0,210618,000.0,W*79
$GPGGA,091944.000,4741.628,N,00915.448,E,1,12,1.0,0.0,M,0.0,M,,*60
$GPGSA,A,3,01,02,03,04,05,06,07,08,09,10,11,12,1.0,1.0,1.0*30
$GPRMC,091944.000,A,4741.628,N,00915.448,E,013.6,256.0,210618,000.0,W*7D
$GPGGA,091945.000,4741.627,N,00915.443,E,1,12,1.0,0.0,M,0.0,M,,*65
$GPGSA,A,3,01,02,03,04,05,06,07,08,09,10,11,12,1.0,1.0,1.0*30
$GPRMC,091945.000,A,4741.627,N,00915.443,E,013.6,256.0,210618,000.0,W*78
$GPGGA,091946.000,4741.626,N,00915.437,E,1,12,1.0,0.0,M,0.0,M,,*64
$GPGSA,A,3,01,02,03,04,05,06,07,08,09,10,11,12,1.0,1.0,1.0*30
$GPRMC,091946.000,A,4741.626,N,00915.437,E,013.6,256.0,210618,000.0,W*79
$GPGGA,091947.000,4741.624,N,00915.432,E,1,12,1.0,0.0,M,0.0,M,,*62
$GPGSA,A,3,01,02,03,04,05,06,07,08,09,10,11,12,1.0,1.0,1.0*30
$GPRMC,091947.000,A,4741.624,N,00915.432,E,013.6,256.0,210618,000.0,W*7F
$GPGGA,091948.000,4741.623,N,00915.427,E,1,12,1.0,0.0,M,0.0,M,,*6E
$GPGSA,A,3,01,02,03,04,05,06,07,08,09,10,11,12,1.0,1.0,1.0*30
$GPRMC,091948.000,A,4741.623,N,00915.427,E,013.6,256.0,210618,000.0,W*73
$GPGGA,091949.000,4741.622,N,00915.422,E,1,12,1.0,0.0,M,0.0,M,,*6B
$GPGSA,A,3,01,02,03,04,05,06,07,08,09,10,11,12,1.0,1.0,1.0*30
$GPRMC,091949.000,A,4741.622,N,00915.422,E,013.6,256.0,210618,000.0,W*76
$GPGGA,091950.000,4741.621,N,00915.416,E,1,12,1.0,0.0,M,0.0,M,,*67
$GPGSA,A,3,01,02,03,04,05,06,07,08,09,10,11,12,1.0,1.0,1.0*30
$GPRMC,091950.000,A,4741.621,N,00915.416,E,013.6,256.0,210618,000.0,W*7A
$GPGGA,091951.000,4741.619,N,00915.411,E,1,12,1.0,0.0,M,0.0,M,,*6A
$GPGSA,A,3,01,02,03,04,05,06,07,08,09,10,11,12,1.0,1.0,1.0*30
$GPRMC,091951.000,A,4741.619,N,00915.411,E,013.6,256.0,210618,000.0,W*77
$GPGGA,091952.000,4741.618,N,00915.406,E,1,12,1.0,0.0,M,0.0,M,,*6E
$GPGSA,A,3,01,02,03,04,05,06,07,08,09,10,11,12,1.0,1.0,1.0*30
$GPRMC,091952.000,A,4741.618,N,00915.406,E,013.6,256.0,210618,000.0,W*73
$GPGGA,091953.000,4741.617,N,00915.401,E,1,12,1.0,0.0,M,0.0,M,,*67
$GPGSA,A,3,01,02,03,04,05,06,07,08,09,10,11,12,1.0,1.0,1.0*30
$GPRMC,091953.000,A,4741.617,N,00915.401,E,013.6,256.0,210618,000.0,W*7A
$GPGGA,091954.000,4741.615,N,00915.395,E,1,12,1.0,0.0,M,0.0,M,,*68
$GPGSA,A,3,01,02,03,04,05,06,07,08,09,10,11,12,1.0,1.0,1.0*30
$GPRMC,091954.000,A,4741.615,N,00915.395,E,013.6,256.0,210618,000.0,W*75
$GPGGA,091955.000,4741.614,N,00915.390,E,1,12,1.0,0.0,M,0.0,M,,*6D
$GPGSA,A,3,01,02,03,04,05,06,07,08,09,10,11,12,1.0,1.0,1.0*30
$GPRMC,091955.000,A,4741.614,N,00915.390,E,013.6,256.0,210618,000.0,W*70
$GPGGA,091956.000,4741.613,N,00915.385,E,1,12,1.0,0.0,M,0.0,M,,*6D
$GPGSA,A,3,01,02,03,04,05,06,07,08,09,10,11,12,1.0,1.0,1.0*30
$GPRMC,091956.000,A,4741.613,N,00915.385,E,013.6,256.0,210618,000.0,W*70
$GPGGA,091957.000,4741.611,N,00915.380,E,1,12,1.0,0.0,M,0.0,M,,*6B
$GPGSA,A,3,01,02,03,04,05,06,07,08,09,10,11,12,1.0,1.0,1.0*30
$GPRMC,091957.000,A,4741.611,N,00915.380,E,013.6,256.0,210618,000.0,W*76
$GPGGA,091958.000,4741.610,N,00915.374,E,1,12,1.0,0.0,M,0.0,M,,*6E
$GPGSA,A,3,01,02,03,04,05,06,07,08,09,10,11,12,1.0,1.0,1.0*30
$GPRMC,091958.000,A,4741.610,N,00915.374,E,013.6,256.0,210618,000.0,W*73
$GPGGA,091959.000,4741.609,N,00915.369,E,1,12,1.0,0.0,M,0.0,M,,*6B
$GPGSA,A,3,01,02,03,04,05,06,07,08,09,10,11,12,1.0,1.0,1.0*30
$GPRMC,091959.000,A,4741.609,N,00915.369,E,013.6,256.0,210618,000.0,W*76
$GPGGA,092000.000,4741.608,N,00915.364,E,1,12,1.0,0.0,M,0.0,M,,*61
$GPGSA,A,3,01,02,03,04,05,06,07,08,09,10,11,12,1.0,1.0,1.0*30
$GPRMC,092000.000,A,4741.608,N,00915.364,E,013.6,256.0,210618,000.0,W*7C
$GPGGA,092001.000,4741.606,N,00915.359,E,1,12,1.0,0.0,M,0.0,M,,*60
$GPGSA,A,3,01,02,03,04,05,06,07,08,09,10,11,12,1.0,1.0,1.0*30
$GPRMC,092001.000,A,4741.606,N,00915.359,E,013.6,256.0,210618,000.0,W*7D
$GPGGA,092002.000,4741.605,N,00915.353,E,1,12,1.0,0.0,M,0.0,M,,*6A
$GPGSA,A,3,01,02,03,04,05,06,07,08,09,10,11,12,1.0,1.0,1.0*30
$GPRMC,092002.000,A,4741.605,N,00915.353,E,013.6,256.0,210618,000.0,W*77
$GPGGA,092003.000,4741.604,N,00915.348,E,1,12,1.0,0.0,M,0.0,M,,*60
$GPGSA,A,3,01,02,03,04,05,06,07,08,09,10,11,12,1.0,1.0,1.0*30
$GPRMC,092003.000,A,4741.604,N,00915.348,E,013.6,256.0,210618,000.0,W*7D
$GPGGA,092004.000,4741.602,N,00915.343,E,1,12,1.0,0.0,M,0.0,M,,*6A
$GPGSA,A,3,01,02,03,04,05,06,07,08,09,10,11,12,1.0,1.0,1.0*30
$GPRMC,092004.000,A,4741.602,N,00915.343,E,013.6,256.0,210618,000.0,W*77
$GPGGA,092005.000,4741.601,N,00915.337,E,1,12,1.0,0.0,M,0.0,M,,*6B
$GPGSA,A,3,01,02,03,04,05,06,07,08,09,10,11,12,1.0,1.0,1.0*30
$GPRMC,092005.000,A,4741.601,N,00915.337,E,013.6,256.0,210618,000.0,W*76
$GPGGA,092006.000,4741.600,N,00915.332,E,1,12,1.0,0.0,M,0.0,M,,*6C
$GPGSA,A,3,01,02,03,04,05,06,07,08,09,10,11,12,1.0,1.0,1.0*30
$GPRMC,092006.000,A,4741.600,N,00915.332,E,013.6,256.0,210618,000.0,W*71
$GPGGA,092007.000,4741.598,N,00915.327,E,1,12,1.0,0.0,M,0.0,M,,*6B
$GPGSA,A,3,01,02,03,04,05,06,07,08,09,10,11,12,1.0,1.0,1.0*30
$GPRMC,092007.000,A,4741.598,N,00915.327,E,013.6,256.0,210618,000.0,W*76
$GPGGA,092008.000,4741.597,N,00915.322,E,1,12,1.0,0.0,M,0.0,M,,*6E
$GPGSA,A,3,01,02,03,04,05,06,07,08,09,10,11,12,1.0,1.0,1.0*30
$GPRMC,092008.000,A,4741.597,N,00915.322,E,013.6,256.0,210618,000.0,W*73
$GPGGA,092009.000,4741.596,N,00915.316,E,1,12,1.0,0.0,M,0.0,M,,*69
$GPGSA,A,3,01,02,03,04,05,06,07,08,09,10,11,12,1.0,1.0,1.0*30
$GPRMC,092009.000,A,4741.596,N,00915.316,E,013.6,256.0,210618,000.0,W*74
$GPGGA,092010.000,4741.594,N,00915.311,E,1,12,1.0,0.0,M,0.0,M,,*64
$GPGSA,A,3,01,02,03,04,05,06,07,08,09,10,11,12,1.0,1.0,1.0*30
$GPRMC,092010.000,A,4741.594,N,00915.311,E,013.6,256.0,210618,000.0,W*79
$GPGGA,092011.000,4741.593,N,00915.306,E,1,12,1.0,0.0,M,0.0,M,,*64
$GPGSA,A,3,01,02,03,04,05,06,07,08,09,10,11,12,1.0,1.0,1.0*30
$GPRMC,092011.000,A,4741.593,N,00915.306,E,013.6,256.0,210618,000.0,W*79
$GPGGA,092012.000,4741.592,N,00915.301,E,1,12,1.0,0.0,M,0.0,M,,*61
$GPGSA,A,3,01,02,03,04,05,06,07,08,09,10,11,12,1.0,1.0,1.0*30
$GPRMC,092012.000,A,4741.592,N,00915.301,E,013.6,256.0,210618,000.0,W*7C
$GPGGA,092013.000,4741.591,N,00915.295,E,1,12,1.0,0.0,M,0.0,M,,*6F
$GPGSA,A,3,01,02,03,04,05,06,07,08,09,10,11,12,1.0,1.0,1.0*30
$GPRMC,092013.000,A,4741.591,N,00915.295,E,013.6,256.0,210618,000.0,W*72
$GPGGA,092014.000,4741.589,N,00915.290,E,1,12,1.0,0.0,M,0.0,M,,*64
$GPGSA,A,3,01,02,03,04,05,06,07,08,09,10,11,12,1.0,1.0,1.0*30
$GPRMC,092014.000,A,4741.589,N,00915.290,E,013.6,256.0,210618,000.0,W*79
$GPGGA,092015.000,4741.588,N,00915.285,E,1,12,1.0,0.0,M,0.0,M,,*60
$GPGSA,A,3,01,02,03,04,05,06,07,08,09,10,11,12,1.0,1.0,1.0*30
$GPRMC,092015.000,A,4741.588,N,00915.285,E,013.6,256.0,210618,000.0,W*7D
$GPGGA,092016.000,4741.587,N,00915.280,E,1,12,1.0,0.0,M,0.0,M,,*69
$GPGSA,A,3,01,02,03,04,05,06,07,08,09,10,11,12,1.0,1.0,1.0*30
$GPRMC,092016.000,A,4741.587,N,00915.280,E,013.6,256.0,210618,000.0,W*74
$GPGGA,092017.000,4741.585,N,00915.274,E,1,12,1.0,0.0,M,0.0,M,,*61
$GPGSA,A,3,01,02,03,04,05,06,07,08,09,10,11,12,1.0,1.0,1.0*30
$GPRMC,092017.000,A,4741.585,N,00915.274,E,013.6,256.0,210618,000.0,W*7C
$GPGGA,092018.000,4741.584,N,00915.269,E,1,12,1.0,0.0,M,0.0,M,,*63
$GPGSA,A,3,01,02,03,04,05,06,07,08,09,10,11,12,1.0,1.0,1.0*30
$GPRMC,092018.000,A,4741.584,N,00915.269,E,013.6,256.0,210618,000.0,W*7E
$GPGGA,092019.000,4741.583,N,00915.264,E,1,12,1.0,0.0,M,0.0,M,,*68
$GPGSA,A,3,01,02,03,04,05,06,07,08,09,10,11,12,1.0,1.0,1.0*30
$GPRMC,092019.000,A,4741.583,N,00915.264,E,013.6,256.0,210618,000.0,W*75
$GPGGA,092020.000,4741.581,N,00915.258,E,1,12,1.0,0.0,M,0.0,M,,*6F
$GPGSA,A,3,01,02,03,04,05,06,07,08,09,10,11,12,1.0,1.0,1.0*30
$GPRMC,092020.000,A,4741.581,N,00915.258,E,013.6,256.0,210618,000.0,W*72
$GPGGA,092021.000,4741.580,N,00915.253,E,1,12,1.0,0.0,M,0.0,M,,*64
$GPGSA,A,3,01,02,03,04,05,06,07,08,09,10,11,12,1.0,1.0,1.0*30
$GPRMC,092021.000,A,4741.580,N,00915.253,E,013.6,256.0,210618,000.0,W*79
$GPGGA,092022.000,4741.579,N,00915.248,E,1,12,1.0,0.0,M,0.0,M,,*6B
$GPGSA,A,3,01,02,03,04,05,06,07,08,09,10,11,12,1.0,1.0,1.0*30
$GPRMC,092022.000,A,4741.579,N,00915.248,E,013.6,256.0,210618,000.0,W*76
$GPGGA,092023.000,4741.577,N,00915.243,E,1,12,1.0,0.0,M,0.0,M,,*6F
$GPGSA,A,3,01,02,03,04,05,06,07,08,09,10,11,12,1.0,1.0,1.0*30
$GPRMC,092023.000,A,4741.577,N,00915.243,E,013.6,256.0,210618,000.0,W*72
$GPGGA,092024.000,4741.576,N,00915.237,E,1,12,1.0,0.0,M,0.0,M,,*6A
$GPGSA,A,3,01,02,03,04,05,06,07,08,09,10,11,12,1.0,1.0,1.0*30
$GPRMC,092024.000,A,4741.576,N,00915.237,E,013.6,256.0,210618,000.0,W*77
$GPGGA,092025.000,4741.575,N,00915.232,E,1,12,1.0,0.0,M,0.0,M,,*6D
$GPGSA,A,3,01,02,03,04,05,06,07,08,09,10,11,12,1.0,1.0,1.0*30
$GPRMC,092025.000,A,4741.575,N,00915.232,E,013.6,256.0,210618,000.0,W*70
$GPGGA,092026.000,4741.574,N,00915.227,E,1,12,1.0,0.0,M,0.0,M,,*6B
$GPGSA,A,3,01,02,03,04,05,06,07,08,09,10,11,12,1.0,1.0,1.0*30
$GPRMC,092026.000,A,4741.574,N,00915.227,E,013.6,256.0,210618,000.0,W*76
$GPGGA,092027.000,4741.572,N,00915.222,E,1,12,1.0,0.0,M,0.0,M,,*69
$GPGSA,A,3,01,02,03,04,05,06,07,08,09,10,11,12,1.0,1.0,1.0*30
$GPRMC,092027.000,A,4741.572,N,00915.222,E,013.6,256.0,210618,000.0,W*74
$GPGGA,092028.000,4741.571,N,00915.216,E,1,12,1.0,0.0,M,0.0,M,,*62
$GPGSA,A,3,01,02,03,04,05,06,07,08,09,10,11,12,1.0,1.0,1.0*30
$GPRMC,092028.000,A,4741.571,N,00915.216,E,013.6,256.0,210618,000.0,W*7F
$GPGGA,092029.000,4741.570,N,00915.211,E,1,12,1.0,0.0,M,0.0,M,,*65
$GPGSA,A,3,01,02,03,04,05,06,07,08,09,10,11,12,1.0,1.0,1.0*30
$GPRMC,092029.000,A,4741.570,N,00915.211,E,013.6,256.0,210618,000.0,W*78
$GPGGA,092030.000,4741.568,N,00915.206,E,1,12,1.0,0.0,M,0.0,M,,*62
$GPGSA,A,3,01,02,03,04,05,06,07,08,09,10,11,12,1.0,1.0,1.0*30
$GPRMC,092030.000,A,4741.568,N,00915.206,E,013.6,256.0,210618,000.0,W*7F
$GPGGA,092031.000,4741.567,N,00915.201,E,1,12,1.0,0.0,M,0.0,M,,*6B
$GPGSA,A,3,01,02,03,04,05,06,07,08,09,10,11,12,1.0,1.0,1.0*30
$GPRMC,092031.000,A,4741.567,N,00915.201,E,013.6,256.0,210618,000.0,W*76
$GPGGA,092032.000,4741.566,N,00915.195,E,1,12,1.0,0.0,M,0.0,M,,*67
$GPGSA,A,3,01,02,03,04,05,06,07,08,09,10,11,12,1.0,1.0,1.0*30
$GPRMC,092032.000,A,4741.566,N,00915.195,E,013.6,256.0,210618,000.0,W*7A
$GPGGA,092033.000,4741.564,N,00915.190,E,1,12,1.0,0.0,M,0.0,M,,*61
$GPGSA,A,3,01,02,03,04,05,06,07,08,09,10,11,12,1.0,1.0,1.0*30
$GPRMC,092033.000,A,4741.564,N,00915.190,E,013.6,256.0,210618,000.0,W*7C
$GPGGA,092034.000,4741.563,N,00915.185,E,1,12,1.0,0.0,M,0.0,M,,*65
$GPGSA,A,3,01,02,03,04,05,06,07,08,09,10,11,12,1.0,1.0,1.0*30
$GPRMC,092034.000,A,4741.563,N,00915.185,E,013.6,256.0,210618,000.0,W*78
