$GPGGA,134537.621,4741.660,N,00916.465,E,1,12,1.0,0.0,M,0.0,M,,*63
$GPGSA,A,3,01,02,03,04,05,06,07,08,09,10,11,12,1.0,1.0,1.0*30
$GPRMC,134537.621,A,4741.660,N,00916.465,E,009.7,303.3,210618,000.0,W*76
$GPGGA,134538.621,4741.662,N,00916.463,E,1,12,1.0,0.0,M,0.0,M,,*68
$GPGSA,A,3,01,02,03,04,05,06,07,08,09,10,11,12,1.0,1.0,1.0*30
$GPRMC,134538.621,A,4741.662,N,00916.463,E,009.7,303.3,210618,000.0,W*7D
$GPGGA,134539.621,4741.664,N,00916.460,E,1,12,1.0,0.0,M,0.0,M,,*6C
$GPGSA,A,3,01,02,03,04,05,06,07,08,09,10,11,12,1.0,1.0,1.0*30
$GPRMC,134539.621,A,4741.664,N,00916.460,E,009.7,303.3,210618,000.0,W*79
$GPGGA,134540.621,4741.665,N,00916.457,E,1,12,1.0,0.0,M,0.0,M,,*67
$GPGSA,A,3,01,02,03,04,05,06,07,08,09,10,11,12,1.0,1.0,1.0*30
$GPRMC,134540.621,A,4741.665,N,00916.457,E,009.7,303.3,210618,000.0,W*72
$GPGGA,134541.621,4741.667,N,00916.454,E,1,12,1.0,0.0,M,0.0,M,,*67
$GPGSA,A,3,01,02,03,04,05,06,07,08,09,10,11,12,1.0,1.0,1.0*30
$GPRMC,134541.621,A,4741.667,N,00916.454,E,009.7,303.3,210618,000.0,W*72
$GPGGA,134542.621,4741.669,N,00916.451,E,1,12,1.0,0.0,M,0.0,M,,*6F
$GPGSA,A,3,01,02,03,04,05,06,07,08,09,10,11,12,1.0,1.0,1.0*30
$GPRMC,134542.621,A,4741.669,N,00916.451,E,009.7,303.3,210618,000.0,W*7A
$GPGGA,134543.621,4741.671,N,00916.448,E,1,12,1.0,0.0,M,0.0,M,,*6F
$GPGSA,A,3,01,02,03,04,05,06,07,08,09,10,11,12,1.0,1.0,1.0*30
$GPRMC,134543.621,A,4741.671,N,00916.448,E,009.7,303.3,210618,000.0,W*7A
$GPGGA,134544.621,4741.673,N,00916.445,E,1,12,1.0,0.0,M,0.0,M,,*67
$GPGSA,A,3,01,02,03,04,05,06,07,08,09,10,11,12,1.0,1.0,1.0*30
$GPRMC,134544.621,A,4741.673,N,00916.445,E,009.7,303.3,210618,000.0,W*72
$GPGGA,134545.621,4741.675,N,00916.442,E,1,12,1.0,0.0,M,0.0,M,,*67
$GPGSA,A,3,01,02,03,04,05,06,07,08,09,10,11,12,1.0,1.0,1.0*30
$GPRMC,134545.621,A,4741.675,N,00916.442,E,009.7,303.3,210618,000.0,W*72
$GPGGA,134546.621,4741.677,N,00916.440,E,1,12,1.0,0.0,M,0.0,M,,*64
$GPGSA,A,3,01,02,03,04,05,06,07,08,09,10,11,12,1.0,1.0,1.0*30
$GPRMC,134546.621,A,4741.677,N,00916.440,E,009.7,303.3,210618,000.0,W*71
$GPGGA,134547.621,4741.679,N,00916.437,E,1,12,1.0,0.0,M,0.0,M,,*6B
$GPGSA,A,3,01,02,03,04,05,06,07,08,09,10,11,12,1.0,1.0,1.0*30
$GPRMC,134547.621,A,4741.679,N,00916.437,E,009.7,303.3,210618,000.0,W*7E
$GPGGA,134548.621,4741.680,N,00916.434,E,1,12,1.0,0.0,M,0.0,M,,*61
$GPGSA,A,3,01,02,03,04,05,06,07,08,09,10,11,12,1.0,1.0,1.0*30
$GPRMC,134548.621,A,4741.680,N,00916.434,E,009.7,303.3,210618,000.0,W*74
$GPGGA,134549.621,4741.682,N,00916.431,E,1,12,1.0,0.0,M,0.0,M,,*67
$GPGSA,A,3,01,02,03,04,05,06,07,08,09,10,11,12,1.0,1.0,1.0*30
$GPRMC,134549.621,A,4741.682,N,00916.431,E,009.7,303.3,210618,000.0,W*72
$GPGGA,134550.621,4741.684,N,00916.428,E,1,12,1.0,0.0,M,0.0,M,,*61
$GPGSA,A,3,01,02,03,04,05,06,07,08,09,10,11,12,1.0,1.0,1.0*30
$GPRMC,134550.621,A,4741.684,N,00916.428,E,009.7,303.3,210618,000.0,W*74
$GPGGA,134551.621,4741.686,N,00916.425,E,1,12,1.0,0.0,M,0.0,M,,*6F
$GPGSA,A,3,01,02,03,04,05,06,07,08,09,10,11,12,1.0,1.0,1.0*30
$GPRMC,134551.621,A,4741.686,N,00916.425,E,009.7,303.3,210618,000.0,W*7A
$GPGGA,134552.621,4741.688,N,00916.422,E,1,12,1.0,0.0,M,0.0,M,,*65
$GPGSA,A,3,01,02,03,04,05,06,07,08,09,10,11,12,1.0,1.0,1.0*30
$GPRMC,134552.621,A,4741.688,N,00916.422,E,009.7,303.3,210618,000.0,W*70
$GPGGA,134553.621,4741.690,N,00916.419,E,1,12,1.0,0.0,M,0.0,M,,*65
$GPGSA,A,3,01,02,03,04,05,06,07,08,09,10,11,12,1.0,1.0,1.0*30
$GPRMC,134553.621,A,4741.690,N,00916.419,E,009.7,303.3,210618,000.0,W*70
$GPGGA,134554.621,4741.692,N,00916.417,E,1,12,1.0,0.0,M,0.0,M,,*6E
$GPGSA,A,3,01,02,03,04,05,06,07,08,09,10,11,12,1.0,1.0,1.0*30
$GPRMC,134554.621,A,4741.692,N,00916.417,E,009.7,303.3,210618,000.0,W*7B
$GPGGA,134555.621,4741.694,N,00916.414,E,1,12,1.0,0.0,M,0.0,M,,*6A
$GPGSA,A,3,01,02,03,04,05,06,07,08,09,10,11,12,1.0,1.0,1.0*30
$GPRMC,134555.621,A,4741.694,N,00916.414,E,009.7,303.3,210618,000.0,W*7F
$GPGGA,134556.621,4741.696,N,00916.411,E,1,12,1.0,0.0,M,0.0,M,,*6E
$GPGSA,A,3,01,02,03,04,05,06,07,08,09,10,11,12,1.0,1.0,1.0*30
$GPRMC,134556.621,A,4741.696,N,00916.411,E,009.7,303.3,210618,000.0,W*7B
$GPGGA,134557.621,4741.697,N,00916.408,E,1,12,1.0,0.0,M,0.0,M,,*66
$GPGSA,A,3,01,02,03,04,05,06,07,08,09,10,11,12,1.0,1.0,1.0*30
$GPRMC,134557.621,A,4741.697,N,00916.408,E,009.7,299.4,210618,000.0,W*76
$GPGGA,134558.621,4741.699,N,00916.405,E,1,12,1.0,0.0,M,0.0,M,,*6A
$GPGSA,A,3,01,02,03,04,05,06,07,08,09,10,11,12,1.0,1.0,1.0*30
$GPRMC,134558.621,A,4741.699,N,00916.405,E,009.7,299.4,210618,000.0,W*7A
$GPGGA,134559.621,4741.701,N,00916.402,E,1,12,1.0,0.0,M,0.0,M,,*6C
$GPGSA,A,3,01,02,03,04,05,06,07,08,09,10,11,12,1.0,1.0,1.0*30
$GPRMC,134559.621,A,4741.701,N,00916.402,E,009.7,299.4,210618,000.0,W*7C
$GPGGA,134600.621,4741.703,N,00916.399,E,1,12,1.0,0.0,M,0.0,M,,*64
$GPGSA,A,3,01,02,03,04,05,06,07,08,09,10,11,12,1.0,1.0,1.0*30
$GPRMC,134600.621,A,4741.703,N,00916.399,E,009.7,299.4,210618,000.0,W*74
$GPGGA,134601.621,4741.704,N,00916.396,E,1,12,1.0,0.0,M,0.0,M,,*6D
$GPGSA,A,3,01,02,03,04,05,06,07,08,09,10,11,12,1.0,1.0,1.0*30
$GPRMC,134601.621,A,4741.704,N,00916.396,E,009.7,299.4,210618,000.0,W*7D
$GPGGA,134602.621,4741.706,N,00916.393,E,1,12,1.0,0.0,M,0.0,M,,*69
$GPGSA,A,3,01,02,03,04,05,06,07,08,09,10,11,12,1.0,1.0,1.0*30
$GPRMC,134602.621,A,4741.706,N,00916.393,E,009.7,299.4,210618,000.0,W*79
$GPGGA,134603.621,4741.708,N,00916.390,E,1,12,1.0,0.0,M,0.0,M,,*65
$GPGSA,A,3,01,02,03,04,05,06,07,08,09,10,11,12,1.0,1.0,1.0*30
$GPRMC,134603.621,A,4741.708,N,00916.390,E,009.7,299.4,210618,000.0,W*75
$GPGGA,134604.621,4741.709,N,00916.386,E,1,12,1.0,0.0,M,0.0,M,,*64
$GPGSA,A,3,01,02,03,04,05,06,07,08,09,10,11,12,1.0,1.0,1.0*30
$GPRMC,134604.621,A,4741.709,N,00916.386,E,009.7,299.4,210618,000.0,W*74
$GPGGA,134605.621,4741.711,N,00916.383,E,1,12,1.0,0.0,M,0.0,M,,*69
$GPGSA,A,3,01,02,03,04,05,06,07,08,09,10,11,12,1.0,1.0,1.0*30
$GPRMC,134605.621,A,4741.711,N,00916.383,E,009.7,299.4,210618,000.0,W*79
$GPGGA,134606.621,4741.713,N,00916.380,E,1,12,1.0,0.0,M,0.0,M,,*6B
$GPGSA,A,3,01,02,03,04,05,06,07,08,09,10,11,12,1.0,1.0,1.0*30
$GPRMC,134606.621,A,4741.713,N,00916.380,E,009.7,299.4,210618,000.0,W*7B
$GPGGA,134607.621,4741.715,N,00916.377,E,1,12,1.0,0.0,M,0.0,M,,*64
$GPGSA,A,3,01,02,03,04,05,06,07,08,09,10,11,12,1.0,1.0,1.0*30
$GPRMC,134607.621,A,4741.715,N,00916.377,E,009.7,299.4,210618,000.0,W*74
$GPGGA,134608.621,4741.716,N,00916.374,E,1,12,1.0,0.0,M,0.0,M,,*6B
$GPGSA,A,3,01,02,03,04,05,06,07,08,09,10,11,12,1.0,1.0,1.0*30
$GPRMC,134608.621,A,4741.716,N,00916.374,E,009.7,299.4,210618,000.0,W*7B
$GPGGA,134609.621,4741.718,N,00916.371,E,1,12,1.0,0.0,M,0.0,M,,*61
$GPGSA,A,3,01,02,03,04,05,06,07,08,09,10,11,12,1.0,1.0,1.0*30
$GPRMC,134609.621,A,4741.718,N,00916.371,E,009.7,299.4,210618,000.0,W*71
$GPGGA,134610.621,4741.720,N,00916.368,E,1,12,1.0,0.0,M,0.0,M,,*6A
$GPGSA,A,3,01,02,03,04,05,06,07,08,09,10,11,12,1.0,1.0,1.0*30
$GPRMC,134610.621,A,4741.720,N,00916.368,E,009.7,299.4,210618,000.0,W*7A
$GPGGA,134611.621,4741.722,N,00916.365,E,1,12,1.0,0.0,M,0.0,M,,*64
$GPGSA,A,3,01,02,03,04,05,06,07,08,09,10,11,12,1.0,1.0,1.0*30
$GPRMC,134611.621,A,4741.722,N,00916.365,E,009.7,289.2,210618,000.0,W*73
$GPGGA,134612.621,4741.723,N,00916.361,E,1,12,1.0,0.0,M,0.0,M,,*62
$GPGSA,A,3,01,02,03,04,05,06,07,08,09,10,11,12,1.0,1.0,1.0*30
$GPRMC,134612.621,A,4741.723,N,00916.361,E,009.7,289.2,210618,000.0,W*75
$GPGGA,134613.621,4741.724,N,00916.358,E,1,12,1.0,0.0,M,0.0,M,,*6E
$GPGSA,A,3,01,02,03,04,05,06,07,08,09,10,11,12,1.0,1.0,1.0*30
$GPRMC,134613.621,A,4741.724,N,00916.358,E,009.7,289.2,210618,000.0,W*79
$GPGGA,134614.621,4741.725,N,00916.354,E,1,12,1.0,0.0,M,0.0,M,,*64
$GPGSA,A,3,01,02,03,04,05,06,07,08,09,10,11,12,1.0,1.0,1.0*30
$GPRMC,134614.621,A,4741.725,N,00916.354,E,009.7,289.2,210618,000.0,W*73
$GPGGA,134615.621,4741.727,N,00916.351,E,1,12,1.0,0.0,M,0.0,M,,*62
$GPGSA,A,3,01,02,03,04,05,06,07,08,09,10,11,12,1.0,1.0,1.0*30
$GPRMC,134615.621,A,4741.727,N,00916.351,E,009.7,279.8,210618,000.0,W*70
$GPGGA,134616.621,4741.727,N,00916.347,E,1,12,1.0,0.0,M,0.0,M,,*66
$GPGSA,A,3,01,02,03,04,05,06,07,08,09,10,11,12,1.0,1.0,1.0*30
$GPRMC,134616.621,A,4741.727,N,00916.347,E,009.7,279.8,210618,000.0,W*74
$GPGGA,134617.621,4741.728,N,00916.343,E,1,12,1.0,0.0,M,0.0,M,,*6C
$GPGSA,A,3,01,02,03,04,05,06,07,08,09,10,11,12,1.0,1.0,1.0*30
$GPRMC,134617.621,A,4741.728,N,00916.343,E,009.7,279.8,210618,000.0,W*7E
$GPGGA,134618.621,4741.729,N,00916.339,E,1,12,1.0,0.0,M,0.0,M,,*6F
$GPGSA,A,3,01,02,03,04,05,06,07,08,09,10,11,12,1.0,1.0,1.0*30
$GPRMC,134618.621,A,4741.729,N,00916.339,E,009.7,279.8,210618,000.0,W*7D
$GPGGA,134619.621,4741.729,N,00916.335,E,1,12,1.0,0.0,M,0.0,M,,*62
$GPGSA,A,3,01,02,03,04,05,06,07,08,09,10,11,12,1.0,1.0,1.0*30
$GPRMC,134619.621,A,4741.729,N,00916.335,E,009.7,265.6,210618,000.0,W*73
$GPGGA,134620.621,4741.729,N,00916.331,E,1,12,1.0,0.0,M,0.0,M,,*6C
$GPGSA,A,3,01,02,03,04,05,06,07,08,09,10,11,12,1.0,1.0,1.0*30
$GPRMC,134620.621,A,4741.729,N,00916.331,E,009.7,265.6,210618,000.0,W*7D
$GPGGA,134621.621,4741.729,N,00916.327,E,1,12,1.0,0.0,M,0.0,M,,*6A
$GPGSA,A,3,01,02,03,04,05,06,07,08,09,10,11,12,1.0,1.0,1.0*30
$GPRMC,134621.621,A,4741.729,N,00916.327,E,009.7,265.6,210618,000.0,W*7B
$GPGGA,134622.621,4741.728,N,00916.323,E,1,12,1.0,0.0,M,0.0,M,,*6C
$GPGSA,A,3,01,02,03,04,05,06,07,08,09,10,11,12,1.0,1.0,1.0*30
$GPRMC,134622.621,A,4741.728,N,00916.323,E,009.7,265.6,210618,000.0,W*7D
$GPGGA,134623.621,4741.728,N,00916.319,E,1,12,1.0,0.0,M,0.0,M,,*64
$GPGSA,A,3,01,02,03,04,05,06,07,08,09,10,11,12,1.0,1.0,1.0*30
$GPRMC,134623.621,A,4741.728,N,00916.319,E,009.7,265.6,210618,000.0,W*75
$GPGGA,134624.621,4741.728,N,00916.315,E,1,12,1.0,0.0,M,0.0,M,,*6F
$GPGSA,A,3,01,02,03,04,05,06,07,08,09,10,11,12,1.0,1.0,1.0*30
$GPRMC,134624.621,A,4741.728,N,00916.315,E,009.7,260.4,210618,000.0,W*79
$GPGGA,134625.621,4741.727,N,00916.311,E,1,12,1.0,0.0,M,0.0,M,,*65
$GPGSA,A,3,01,02,03,04,05,06,07,08,09,10,11,12,1.0,1.0,1.0*30
$GPRMC,134625.621,A,4741.727,N,00916.311,E,009.7,260.4,210618,000.0,W*73
$GPGGA,134626.621,4741.726,N,00916.307,E,1,12,1.0,0.0,M,0.0,M,,*60
$GPGSA,A,3,01,02,03,04,05,06,07,08,09,10,11,12,1.0,1.0,1.0*30
$GPRMC,134626.621,A,4741.726,N,00916.307,E,009.7,260.4,210618,000.0,W*76
$GPGGA,134627.621,4741.726,N,00916.304,E,1,12,1.0,0.0,M,0.0,M,,*62
$GPGSA,A,3,01,02,03,04,05,06,07,08,09,10,11,12,1.0,1.0,1.0*30
$GPRMC,134627.621,A,4741.726,N,00916.304,E,009.7,260.4,210618,000.0,W*74
$GPGGA,134628.621,4741.725,N,00916.300,E,1,12,1.0,0.0,M,0.0,M,,*6A
$GPGSA,A,3,01,02,03,04,05,06,07,08,09,10,11,12,1.0,1.0,1.0*30
$GPRMC,134628.621,A,4741.725,N,00916.300,E,009.7,260.4,210618,000.0,W*7C
$GPGGA,134629.621,4741.724,N,00916.296,E,1,12,1.0,0.0,M,0.0,M,,*64
$GPGSA,A,3,01,02,03,04,05,06,07,08,09,10,11,12,1.0,1.0,1.0*30
$GPRMC,134629.621,A,4741.724,N,00916.296,E,009.7,260.4,210618,000.0,W*72
$GPGGA,134630.621,4741.724,N,00916.292,E,1,12,1.0,0.0,M,0.0,M,,*68
$GPGSA,A,3,01,02,03,04,05,06,07,08,09,10,11,12,1.0,1.0,1.0*30
$GPRMC,134630.621,A,4741.724,N,00916.292,E,009.7,260.4,210618,000.0,W*7E
$GPGGA,134631.621,4741.723,N,00916.288,E,1,12,1.0,0.0,M,0.0,M,,*65
$GPGSA,A,3,01,02,03,04,05,06,07,08,09,10,11,12,1.0,1.0,1.0*30
$GPRMC,134631.621,A,4741.723,N,00916.288,E,009.7,260.4,210618,000.0,W*73
$GPGGA,134632.621,4741.722,N,00916.284,E,1,12,1.0,0.0,M,0.0,M,,*6B
$GPGSA,A,3,01,02,03,04,05,06,07,08,09,10,11,12,1.0,1.0,1.0*30
$GPRMC,134632.621,A,4741.722,N,00916.284,E,009.7,260.4,210618,000.0,W*7D
$GPGGA,134633.621,4741.722,N,00916.280,E,1,12,1.0,0.0,M,0.0,M,,*6E
$GPGSA,A,3,01,02,03,04,05,06,07,08,09,10,11,12,1.0,1.0,1.0*30
$GPRMC,134633.621,A,4741.722,N,00916.280,E,009.7,260.4,210618,000.0,W*78
$GPGGA,134634.621,4741.721,N,00916.276,E,1,12,1.0,0.0,M,0.0,M,,*63
$GPGSA,A,3,01,02,03,04,05,06,07,08,09,10,11,12,1.0,1.0,1.0*30
$GPRMC,134634.621,A,4741.721,N,00916.276,E,009.7,259.3,210618,000.0,W*78
$GPGGA,134635.621,4741.720,N,00916.272,E,1,12,1.0,0.0,M,0.0,M,,*67
$GPGSA,A,3,01,02,03,04,05,06,07,08,09,10,11,12,1.0,1.0,1.0*30
$GPRMC,134635.621,A,4741.720,N,00916.272,E,009.7,259.3,210618,000.0,W*7C
$GPGGA,134636.621,4741.720,N,00916.269,E,1,12,1.0,0.0,M,0.0,M,,*6E
$GPGSA,A,3,01,02,03,04,05,06,07,08,09,10,11,12,1.0,1.0,1.0*30
$GPRMC,134636.621,A,4741.720,N,00916.269,E,009.7,259.3,210618,000.0,W*75
$GPGGA,134637.621,4741.719,N,00916.265,E,1,12,1.0,0.0,M,0.0,M,,*69
$GPGSA,A,3,01,02,03,04,05,06,07,08,09,10,11,12,1.0,1.0,1.0*30
$GPRMC,134637.621,A,4741.719,N,00916.265,E,009.7,259.3,210618,000.0,W*72
$GPGGA,134638.621,4741.718,N,00916.261,E,1,12,1.0,0.0,M,0.0,M,,*63
$GPGSA,A,3,01,02,03,04,05,06,07,08,09,10,11,12,1.0,1.0,1.0*30
$GPRMC,134638.621,A,4741.718,N,00916.261,E,009.7,259.3,210618,000.0,W*78
$GPGGA,134639.621,4741.718,N,00916.257,E,1,12,1.0,0.0,M,0.0,M,,*67
$GPGSA,A,3,01,02,03,04,05,06,07,08,09,10,11,12,1.0,1.0,1.0*30
$GPRMC,134639.621,A,4741.718,N,00916.257,E,009.7,252.5,210618,000.0,W*71
$GPGGA,134640.621,4741.716,N,00916.253,E,1,12,1.0,0.0,M,0.0,M,,*63
$GPGSA,A,3,01,02,03,04,05,06,07,08,09,10,11,12,1.0,1.0,1.0*30
$GPRMC,134640.621,A,4741.716,N,00916.253,E,009.7,252.5,210618,000.0,W*75
$GPGGA,134641.621,4741.715,N,00916.250,E,1,12,1.0,0.0,M,0.0,M,,*62
$GPGSA,A,3,01,02,03,04,05,06,07,08,09,10,11,12,1.0,1.0,1.0*30
$GPRMC,134641.621,A,4741.715,N,00916.250,E,009.7,252.5,210618,000.0,W*74
$GPGGA,134642.621,4741.714,N,00916.246,E,1,12,1.0,0.0,M,0.0,M,,*67
$GPGSA,A,3,01,02,03,04,05,06,07,08,09,10,11,12,1.0,1.0,1.0*30
$GPRMC,134642.621,A,4741.714,N,00916.246,E,009.7,241.7,210618,000.0,W*71
$GPGGA,134643.621,4741.712,N,00916.243,E,1,12,1.0,0.0,M,0.0,M,,*65
$GPGSA,A,3,01,02,03,04,05,06,07,08,09,10,11,12,1.0,1.0,1.0*30
$GPRMC,134643.621,A,4741.712,N,00916.243,E,009.7,241.7,210618,000.0,W*73
$GPGGA,134644.621,4741.711,N,00916.240,E,1,12,1.0,0.0,M,0.0,M,,*62
$GPGSA,A,3,01,02,03,04,05,06,07,08,09,10,11,12,1.0,1.0,1.0*30
$GPRMC,134644.621,A,4741.711,N,00916.240,E,009.7,231.8,210618,000.0,W*7C
$GPGGA,134645.621,4741.709,N,00916.237,E,1,12,1.0,0.0,M,0.0,M,,*6A
$GPGSA,A,3,01,02,03,04,05,06,07,08,09,10,11,12,1.0,1.0,1.0*30
$GPRMC,134645.621,A,4741.709,N,00916.237,E,009.7,231.8,210618,000.0,W*74
$GPGGA,134646.621,4741.707,N,00916.235,E,1,12,1.0,0.0,M,0.0,M,,*65
$GPGSA,A,3,01,02,03,04,05,06,07,08,09,10,11,12,1.0,1.0,1.0*30
$GPRMC,134646.621,A,4741.707,N,00916.235,E,009.7,231.8,210618,000.0,W*7B
$GPGGA,134647.621,4741.705,N,00916.232,E,1,12,1.0,0.0,M,0.0,M,,*61
$GPGSA,A,3,01,02,03,04,05,06,07,08,09,10,11,12,1.0,1.0,1.0*30
$GPRMC,134647.621,A,4741.705,N,00916.232,E,009.7,231.8,210618,000.0,W*7F
$GPGGA,134648.621,4741.703,N,00916.229,E,1,12,1.0,0.0,M,0.0,M,,*62
$GPGSA,A,3,01,02,03,04,05,06,07,08,09,10,11,12,1.0,1.0,1.0*30
$GPRMC,134648.621,A,4741.703,N,00916.229,E,009.7,229.9,210618,000.0,W*74
$GPGGA,134649.621,4741.700,N,00916.227,E,1,12,1.0,0.0,M,0.0,M,,*6E
$GPGSA,A,3,01,02,03,04,05,06,07,08,09,10,11,12,1.0,1.0,1.0*30
$GPRMC,134649.621,A,4741.700,N,00916.227,E,009.7,229.9,210618,000.0,W*78
$GPGGA,134650.621,4741.698,N,00916.224,E,1,12,1.0,0.0,M,0.0,M,,*65
$GPGSA,A,3,01,02,03,04,05,06,07,08,09,10,11,12,1.0,1.0,1.0*30
$GPRMC,134650.621,A,4741.698,N,00916.224,E,009.7,229.9,210618,000.0,W*73
$GPGGA,134651.621,4741.696,N,00916.222,E,1,12,1.0,0.0,M,0.0,M,,*6C
$GPGSA,A,3,01,02,03,04,05,06,07,08,09,10,11,12,1.0,1.0,1.0*30
$GPRMC,134651.621,A,4741.696,N,00916.222,E,009.7,229.9,210618,000.0,W*7A
$GPGGA,134652.621,4741.694,N,00916.219,E,1,12,1.0,0.0,M,0.0,M,,*65
$GPGSA,A,3,01,02,03,04,05,06,07,08,09,10,11,12,1.0,1.0,1.0*30
$GPRMC,134652.621,A,4741.694,N,00916.219,E,009.7,239.0,210618,000.0,W*7B
$GPGGA,134653.621,4741.692,N,00916.216,E,1,12,1.0,0.0,M,0.0,M,,*6D
$GPGSA,A,3,01,02,03,04,05,06,07,08,09,10,11,12,1.0,1.0,1.0*30
$GPRMC,134653.621,A,4741.692,N,00916.216,E,009.7,239.0,210618,000.0,W*73
$GPGGA,134654.621,4741.691,N,00916.213,E,1,12,1.0,0.0,M,0.0,M,,*6C
$GPGSA,A,3,01,02,03,04,05,06,07,08,09,10,11,12,1.0,1.0,1.0*30
$GPRMC,134654.621,A,4741.691,N,00916.213,E,009.7,239.0,210618,000.0,W*72
$GPGGA,134655.621,4741.689,N,00916.210,E,1,12,1.0,0.0,M,0.0,M,,*67
$GPGSA,A,3,01,02,03,04,05,06,07,08,09,10,11,12,1.0,1.0,1.0*30
$GPRMC,134655.621,A,4741.689,N,00916.210,E,009.7,239.0,210618,000.0,W*79
$GPGGA,134656.621,4741.687,N,00916.207,E,1,12,1.0,0.0,M,0.0,M,,*6C
$GPGSA,A,3,01,02,03,04,05,06,07,08,09,10,11,12,1.0,1.0,1.0*30
$GPRMC,134656.621,A,4741.687,N,00916.207,E,009.7,250.6,210618,000.0,W*7B
$GPGGA,134657.621,4741.686,N,00916.204,E,1,12,1.0,0.0,M,0.0,M,,*6F
$GPGSA,A,3,01,02,03,04,05,06,07,08,09,10,11,12,1.0,1.0,1.0*30
$GPRMC,134657.621,A,4741.686,N,00916.204,E,009.7,250.6,210618,000.0,W*78
$GPGGA,134658.621,4741.684,N,00916.200,E,1,12,1.0,0.0,M,0.0,M,,*66
$GPGSA,A,3,01,02,03,04,05,06,07,08,09,10,11,12,1.0,1.0,1.0*30
$GPRMC,134658.621,A,4741.684,N,00916.200,E,009.7,250.6,210618,000.0,W*71
$GPGGA,134659.621,4741.683,N,00916.197,E,1,12,1.0,0.0,M,0.0,M,,*6D
$GPGSA,A,3,01,02,03,04,05,06,07,08,09,10,11,12,1.0,1.0,1.0*30
$GPRMC,134659.621,A,4741.683,N,00916.197,E,009.7,250.6,210618,000.0,W*7A
$GPGGA,134700.621,4741.682,N,00916.193,E,1,12,1.0,0.0,M,0.0,M,,*65
$GPGSA,A,3,01,02,03,04,05,06,07,08,09,10,11,12,1.0,1.0,1.0*30
$GPRMC,134700.621,A,4741.682,N,00916.193,E,009.7,258.6,210618,000.0,W*7A
$GPGGA,134701.621,4741.681,N,00916.189,E,1,12,1.0,0.0,M,0.0,M,,*6C
$GPGSA,A,3,01,02,03,04,05,06,07,08,09,10,11,12,1.0,1.0,1.0*30
$GPRMC,134701.621,A,4741.681,N,00916.189,E,009.7,258.6,210618,000.0,W*73
$GPGGA,134702.621,4741.680,N,00916.185,E,1,12,1.0,0.0,M,0.0,M,,*62
$GPGSA,A,3,01,02,03,04,05,06,07,08,09,10,11,12,1.0,1.0,1.0*30
$GPRMC,134702.621,A,4741.680,N,00916.185,E,009.7,258.6,210618,000.0,W*7D
$GPGGA,134703.621,4741.680,N,00916.182,E,1,12,1.0,0.0,M,0.0,M,,*64
$GPGSA,A,3,01,02,03,04,05,06,07,08,09,10,11,12,1.0,1.0,1.0*30
$GPRMC,134703.621,A,4741.680,N,00916.182,E,009.7,258.6,210618,000.0,W*7B
$GPGGA,134704.621,4741.679,N,00916.178,E,1,12,1.0,0.0,M,0.0,M,,*60
$GPGSA,A,3,01,02,03,04,05,06,07,08,09,10,11,12,1.0,1.0,1.0*30
$GPRMC,134704.621,A,4741.679,N,00916.178,E,009.7,258.6,210618,000.0,W*7F
$GPGGA,134705.621,4741.678,N,00916.174,E,1,12,1.0,0.0,M,0.0,M,,*6C
$GPGSA,A,3,01,02,03,04,05,06,07,08,09,10,11,12,1.0,1.0,1.0*30
$GPRMC,134705.621,A,4741.678,N,00916.174,E,009.7,258.6,210618,000.0,W*73
$GPGGA,134706.621,4741.677,N,00916.170,E,1,12,1.0,0.0,M,0.0,M,,*64
$GPGSA,A,3,01,02,03,04,05,06,07,08,09,10,11,12,1.0,1.0,1.0*30
$GPRMC,134706.621,A,4741.677,N,00916.170,E,009.7,258.6,210618,000.0,W*7B
$GPGGA,134707.621,4741.677,N,00916.166,E,1,12,1.0,0.0,M,0.0,M,,*62
$GPGSA,A,3,01,02,03,04,05,06,07,08,09,10,11,12,1.0,1.0,1.0*30
$GPRMC,134707.621,A,4741.677,N,00916.166,E,009.7,269.5,210618,000.0,W*7C
$GPGGA,134708.621,4741.677,N,00916.162,E,1,12,1.0,0.0,M,0.0,M,,*69
$GPGSA,A,3,01,02,03,04,05,06,07,08,09,10,11,12,1.0,1.0,1.0*30
$GPRMC,134708.621,A,4741.677,N,00916.162,E,009.7,269.5,210618,000.0,W*77
$GPGGA,134709.621,4741.676,N,00916.158,E,1,12,1.0,0.0,M,0.0,M,,*60
$GPGSA,A,3,01,02,03,04,05,06,07,08,09,10,11,12,1.0,1.0,1.0*30
$GPRMC,134709.621,A,4741.676,N,00916.158,E,009.7,269.5,210618,000.0,W*7E
$GPGGA,134710.621,4741.676,N,00916.154,E,1,12,1.0,0.0,M,0.0,M,,*64
$GPGSA,A,3,01,02,03,04,05,06,07,08,09,10,11,12,1.0,1.0,1.0*30
$GPRMC,134710.621,A,4741.676,N,00916.154,E,009.7,269.5,210618,000.0,W*7A
$GPGGA,134711.621,4741.676,N,00916.150,E,1,12,1.0,0.0,M,0.0,M,,*61
$GPGSA,A,3,01,02,03,04,05,06,07,08,09,10,11,12,1.0,1.0,1.0*30
$GPRMC,134711.621,A,4741.676,N,00916.150,E,009.7,269.5,210618,000.0,W*7F
$GPGGA,134712.621,4741.676,N,00916.146,E,1,12,1.0,0.0,M,0.0,M,,*65
$GPGSA,A,3,01,02,03,04,05,06,07,08,09,10,11,12,1.0,1.0,1.0*30
$GPRMC,134712.621,A,4741.676,N,00916.146,E,009.7,269.5,210618,000.0,W*7B
$GPGGA,134713.621,4741.676,N,00916.142,E,1,12,1.0,0.0,M,0.0,M,,*60
$GPGSA,A,3,01,02,03,04,05,06,07,08,09,10,11,12,1.0,1.0,1.0*30
$GPRMC,134713.621,A,4741.676,N,00916.142,E,009.7,269.5,210618,000.0,W*7E
$GPGGA,134714.621,4741.676,N,00916.138,E,1,12,1.0,0.0,M,0.0,M,,*6A
$GPGSA,A,3,01,02,03,04,05,06,07,08,09,10,11,12,1.0,1.0,1.0*30
$GPRMC,134714.621,A,4741.676,N,00916.138,E,009.7,269.5,210618,000.0,W*74
$GPGGA,134715.621,4741.676,N,00916.134,E,1,12,1.0,0.0,M,0.0,M,,*67
$GPGSA,A,3,01,02,03,04,05,06,07,08,09,10,11,12,1.0,1.0,1.0*30
$GPRMC,134715.621,A,4741.676,N,00916.134,E,009.7,279.5,210618,000.0,W*78
$GPGGA,134716.621,4741.677,N,00916.130,E,1,12,1.0,0.0,M,0.0,M,,*61
$GPGSA,A,3,01,02,03,04,05,06,07,08,09,10,11,12,1.0,1.0,1.0*30
$GPRMC,134716.621,A,4741.677,N,00916.130,E,009.7,279.5,210618,000.0,W*7E
$GPGGA,134717.621,4741.678,N,00916.126,E,1,12,1.0,0.0,M,0.0,M,,*68
$GPGSA,A,3,01,02,03,04,05,06,07,08,09,10,11,12,1.0,1.0,1.0*30
$GPRMC,134717.621,A,4741.678,N,00916.126,E,009.7,279.5,210618,000.0,W*77
$GPGGA,134718.621,4741.678,N,00916.123,E,1,12,1.0,0.0,M,0.0,M,,*62
$GPGSA,A,3,01,02,03,04,05,06,07,08,09,10,11,12,1.0,1.0,1.0*30
$GPRMC,134718.621,A,4741.678,N,00916.123,E,009.7,279.5,210618,000.0,W*7D
$GPGGA,134719.621,4741.679,N,00916.119,E,1,12,1.0,0.0,M,0.0,M,,*6B
$GPGSA,A,3,01,02,03,04,05,06,07,08,09,10,11,12,1.0,1.0,1.0*30
$GPRMC,134719.621,A,4741.679,N,00916.119,E,009.7,279.5,210618,000.0,W*74
$GPGGA,134720.621,4741.680,N,00916.115,E,1,12,1.0,0.0,M,0.0,M,,*6B
$GPGSA,A,3,01,02,03,04,05,06,07,08,09,10,11,12,1.0,1.0,1.0*30
$GPRMC,134720.621,A,4741.680,N,00916.115,E,009.7,279.5,210618,000.0,W*74
$GPGGA,134721.621,4741.680,N,00916.111,E,1,12,1.0,0.0,M,0.0,M,,*6E
$GPGSA,A,3,01,02,03,04,05,06,07,08,09,10,11,12,1.0,1.0,1.0*30
$GPRMC,134721.621,A,4741.680,N,00916.111,E,009.7,279.5,210618,000.0,W*71
$GPGGA,134722.621,4741.681,N,00916.107,E,1,12,1.0,0.0,M,0.0,M,,*6B
$GPGSA,A,3,01,02,03,04,05,06,07,08,09,10,11,12,1.0,1.0,1.0*30
$GPRMC,134722.621,A,4741.681,N,00916.107,E,009.7,292.3,210618,000.0,W*77
$GPGGA,134723.621,4741.682,N,00916.104,E,1,12,1.0,0.0,M,0.0,M,,*6A
$GPGSA,A,3,01,02,03,04,05,06,07,08,09,10,11,12,1.0,1.0,1.0*30
$GPRMC,134723.621,A,4741.682,N,00916.104,E,009.7,292.3,210618,000.0,W*76
$GPGGA,134724.621,4741.684,N,00916.100,E,1,12,1.0,0.0,M,0.0,M,,*6F
$GPGSA,A,3,01,02,03,04,05,06,07,08,09,10,11,12,1.0,1.0,1.0*30
$GPRMC,134724.621,A,4741.684,N,00916.100,E,009.7,292.3,210618,000.0,W*73
$GPGGA,134725.621,4741.685,N,00916.097,E,1,12,1.0,0.0,M,0.0,M,,*60
$GPGSA,A,3,01,02,03,04,05,06,07,08,09,10,11,12,1.0,1.0,1.0*30
$GPRMC,134725.621,A,4741.685,N,00916.097,E,009.7,292.3,210618,000.0,W*7C
$GPGGA,134726.621,4741.686,N,00916.093,E,1,12,1.0,0.0,M,0.0,M,,*64
$GPGSA,A,3,01,02,03,04,05,06,07,08,09,10,11,12,1.0,1.0,1.0*30
$GPRMC,134726.621,A,4741.686,N,00916.093,E,009.7,292.3,210618,000.0,W*78
$GPGGA,134727.621,4741.688,N,00916.090,E,1,12,1.0,0.0,M,0.0,M,,*68
$GPGSA,A,3,01,02,03,04,05,06,07,08,09,10,11,12,1.0,1.0,1.0*30
$GPRMC,134727.621,A,4741.688,N,00916.090,E,009.7,292.3,210618,000.0,W*74
$GPGGA,134728.621,4741.689,N,00916.086,E,1,12,1.0,0.0,M,0.0,M,,*61
$GPGSA,A,3,01,02,03,04,05,06,07,08,09,10,11,12,1.0,1.0,1.0*30
$GPRMC,134728.621,A,4741.689,N,00916.086,E,009.7,292.3,210618,000.0,W*7D
$GPGGA,134729.621,4741.691,N,00916.083,E,1,12,1.0,0.0,M,0.0,M,,*6C
$GPGSA,A,3,01,02,03,04,05,06,07,08,09,10,11,12,1.0,1.0,1.0*30
$GPRMC,134729.621,A,4741.691,N,00916.083,E,009.7,292.3,210618,000.0,W*70
$GPGGA,134730.621,4741.692,N,00916.080,E,1,12,1.0,0.0,M,0.0,M,,*64
$GPGSA,A,3,01,02,03,04,05,06,07,08,09,10,11,12,1.0,1.0,1.0*30
$GPRMC,134730.621,A,4741.692,N,00916.080,E,009.7,292.3,210618,000.0,W*78
$GPGGA,134731.621,4741.693,N,00916.076,E,1,12,1.0,0.0,M,0.0,M,,*6D
$GPGSA,A,3,01,02,03,04,05,06,07,08,09,10,11,12,1.0,1.0,1.0*30
$GPRMC,134731.621,A,4741.693,N,00916.076,E,009.7,292.3,210618,000.0,W*71
$GPGGA,134732.621,4741.695,N,00916.073,E,1,12,1.0,0.0,M,0.0,M,,*6D
$GPGSA,A,3,01,02,03,04,05,06,07,08,09,10,11,12,1.0,1.0,1.0*30
$GPRMC,134732.621,A,4741.695,N,00916.073,E,009.7,293.9,210618,000.0,W*7A
$GPGGA,134733.621,4741.696,N,00916.069,E,1,12,1.0,0.0,M,0.0,M,,*64
$GPGSA,A,3,01,02,03,04,05,06,07,08,09,10,11,12,1.0,1.0,1.0*30
$GPRMC,134733.621,A,4741.696,N,00916.069,E,009.7,293.9,210618,000.0,W*73
$GPGGA,134734.621,4741.698,N,00916.066,E,1,12,1.0,0.0,M,0.0,M,,*62
$GPGSA,A,3,01,02,03,04,05,06,07,08,09,10,11,12,1.0,1.0,1.0*30
$GPRMC,134734.621,A,4741.698,N,00916.066,E,009.7,293.9,210618,000.0,W*75
$GPGGA,134735.621,4741.699,N,00916.063,E,1,12,1.0,0.0,M,0.0,M,,*67
$GPGSA,A,3,01,02,03,04,05,06,07,08,09,10,11,12,1.0,1.0,1.0*30
$GPRMC,134735.621,A,4741.699,N,00916.063,E,009.7,293.9,210618,000.0,W*70
$GPGGA,134736.621,4741.701,N,00916.059,E,1,12,1.0,0.0,M,0.0,M,,*6D
$GPGSA,A,3,01,02,03,04,05,06,07,08,09,10,11,12,1.0,1.0,1.0*30
$GPRMC,134736.621,A,4741.701,N,00916.059,E,009.7,293.9,210618,000.0,W*7A
$GPGGA,134737.621,4741.702,N,00916.056,E,1,12,1.0,0.0,M,0.0,M,,*60
$GPGSA,A,3,01,02,03,04,05,06,07,08,09,10,11,12,1.0,1.0,1.0*30
$GPRMC,134737.621,A,4741.702,N,00916.056,E,009.7,293.9,210618,000.0,W*77
$GPGGA,134738.621,4741.704,N,00916.053,E,1,12,1.0,0.0,M,0.0,M,,*6C
$GPGSA,A,3,01,02,03,04,05,06,07,08,09,10,11,12,1.0,1.0,1.0*30
$GPRMC,134738.621,A,4741.704,N,00916.053,E,009.7,286.9,210618,000.0,W*7F
$GPGGA,134739.621,4741.705,N,00916.049,E,1,12,1.0,0.0,M,0.0,M,,*67
$GPGSA,A,3,01,02,03,04,05,06,07,08,09,10,11,12,1.0,1.0,1.0*30
$GPRMC,134739.621,A,4741.705,N,00916.049,E,009.7,286.9,210618,000.0,W*74
$GPGGA,134740.621,4741.706,N,00916.045,E,1,12,1.0,0.0,M,0.0,M,,*66
$GPGSA,A,3,01,02,03,04,05,06,07,08,09,10,11,12,1.0,1.0,1.0*30
$GPRMC,134740.621,A,4741.706,N,00916.045,E,009.7,286.9,210618,000.0,W*75
$GPGGA,134741.621,4741.707,N,00916.042,E,1,12,1.0,0.0,M,0.0,M,,*61
$GPGSA,A,3,01,02,03,04,05,06,07,08,09,10,11,12,1.0,1.0,1.0*30
$GPRMC,134741.621,A,4741.707,N,00916.042,E,009.7,286.9,210618,000.0,W*72
$GPGGA,134742.621,4741.708,N,00916.038,E,1,12,1.0,0.0,M,0.0,M,,*60
$GPGSA,A,3,01,02,03,04,05,06,07,08,09,10,11,12,1.0,1.0,1.0*30
$GPRMC,134742.621,A,4741.708,N,00916.038,E,009.7,286.9,210618,000.0,W*73
$GPGGA,134743.621,4741.709,N,00916.034,E,1,12,1.0,0.0,M,0.0,M,,*6C
$GPGSA,A,3,01,02,03,04,05,06,07,08,09,10,11,12,1.0,1.0,1.0*30
$GPRMC,134743.621,A,4741.709,N,00916.034,E,009.7,286.9,210618,000.0,W*7F
$GPGGA,134744.621,4741.710,N,00916.031,E,1,12,1.0,0.0,M,0.0,M,,*66
$GPGSA,A,3,01,02,03,04,05,06,07,08,09,10,11,12,1.0,1.0,1.0*30
$GPRMC,134744.621,A,4741.710,N,00916.031,E,009.7,286.9,210618,000.0,W*75
$GPGGA,134745.621,4741.711,N,00916.027,E,1,12,1.0,0.0,M,0.0,M,,*61
$GPGSA,A,3,01,02,03,04,05,06,07,08,09,10,11,12,1.0,1.0,1.0*30
$GPRMC,134745.621,A,4741.711,N,00916.027,E,009.7,286.9,210618,000.0,W*72
$GPGGA,134746.621,4741.713,N,00916.023,E,1,12,1.0,0.0,M,0.0,M,,*64
$GPGSA,A,3,01,02,03,04,05,06,07,08,09,10,11,12,1.0,1.0,1.0*30
$GPRMC,134746.621,A,4741.713,N,00916.023,E,009.7,287.2,210618,000.0,W*7D
$GPGGA,134747.621,4741.714,N,00916.020,E,1,12,1.0,0.0,M,0.0,M,,*61
$GPGSA,A,3,01,02,03,04,05,06,07,08,09,10,11,12,1.0,1.0,1.0*30
$GPRMC,134747.621,A,4741.714,N,00916.020,E,009.7,287.2,210618,000.0,W*78
$GPGGA,134748.621,4741.715,N,00916.016,E,1,12,1.0,0.0,M,0.0,M,,*6A
$GPGSA,A,3,01,02,03,04,05,06,07,08,09,10,11,12,1.0,1.0,1.0*30
$GPRMC,134748.621,A,4741.715,N,00916.016,E,009.7,287.2,210618,000.0,W*73
$GPGGA,134749.621,4741.716,N,00916.012,E,1,12,1.0,0.0,M,0.0,M,,*6C
$GPGSA,A,3,01,02,03,04,05,06,07,08,09,10,11,12,1.0,1.0,1.0*30
$GPRMC,134749.621,A,4741.716,N,00916.012,E,009.7,287.2,210618,000.0,W*75
$GPGGA,134750.621,4741.717,N,00916.009,E,1,12,1.0,0.0,M,0.0,M,,*6F
$GPGSA,A,3,01,02,03,04,05,06,07,08,09,10,11,12,1.0,1.0,1.0*30
$GPRMC,134750.621,A,4741.717,N,00916.009,E,009.7,287.2,210618,000.0,W*76
$GPGGA,134751.621,4741.718,N,00916.005,E,1,12,1.0,0.0,M,0.0,M,,*6D
$GPGSA,A,3,01,02,03,04,05,06,07,08,09,10,11,12,1.0,1.0,1.0*30
$GPRMC,134751.621,A,4741.718,N,00916.005,E,009.7,287.2,210618,000.0,W*74
$GPGGA,134752.621,4741.719,N,00916.002,E,1,12,1.0,0.0,M,0.0,M,,*68
$GPGSA,A,3,01,02,03,04,05,06,07,08,09,10,11,12,1.0,1.0,1.0*30
$GPRMC,134752.621,A,4741.719,N,00916.002,E,009.7,299.4,210618,000.0,W*78
$GPGGA,134753.621,4741.721,N,00915.998,E,1,12,1.0,0.0,M,0.0,M,,*6B
$GPGSA,A,3,01,02,03,04,05,06,07,08,09,10,11,12,1.0,1.0,1.0*30
$GPRMC,134753.621,A,4741.721,N,00915.998,E,009.7,299.4,210618,000.0,W*7B
$GPGGA,134754.621,4741.723,N,00915.995,E,1,12,1.0,0.0,M,0.0,M,,*63
$GPGSA,A,3,01,02,03,04,05,06,07,08,09,10,11,12,1.0,1.0,1.0*30
$GPRMC,134754.621,A,4741.723,N,00915.995,E,009.7,304.0,210618,000.0,W*72
$GPGGA,134755.621,4741.725,N,00915.993,E,1,12,1.0,0.0,M,0.0,M,,*62
$GPGSA,A,3,01,02,03,04,05,06,07,08,09,10,11,12,1.0,1.0,1.0*30
$GPRMC,134755.621,A,4741.725,N,00915.993,E,009.7,304.0,210618,000.0,W*73
$GPGGA,134756.621,4741.727,N,00915.990,E,1,12,1.0,0.0,M,0.0,M,,*60
$GPGSA,A,3,01,02,03,04,05,06,07,08,09,10,11,12,1.0,1.0,1.0*30
$GPRMC,134756.621,A,4741.727,N,00915.990,E,009.7,304.0,210618,000.0,W*71
$GPGGA,134757.621,4741.728,N,00915.987,E,1,12,1.0,0.0,M,0.0,M,,*68
$GPGSA,A,3,01,02,03,04,05,06,07,08,09,10,11,12,1.0,1.0,1.0*30
$GPRMC,134757.621,A,4741.728,N,00915.987,E,009.7,304.0,210618,000.0,W*79
$GPGGA,134758.621,4741.730,N,00915.984,E,1,12,1.0,0.0,M,0.0,M,,*6D
$GPGSA,A,3,01,02,03,04,05,06,07,08,09,10,11,12,1.0,1.0,1.0*30
$GPRMC,134758.621,A,4741.730,N,00915.984,E,009.7,304.0,210618,000.0,W*7C
$GPGGA,134759.621,4741.732,N,00915.981,E,1,12,1.0,0.0,M,0.0,M,,*6B
$GPGSA,A,3,01,02,03,04,05,06,07,08,09,10,11,12,1.0,1.0,1.0*30
$GPRMC,134759.621,A,4741.732,N,00915.981,E,009.7,304.0,210618,000.0,W*7A
$GPGGA,134800.621,4741.734,N,00915.978,E,1,12,1.0,0.0,M,0.0,M,,*68
$GPGSA,A,3,01,02,03,04,05,06,07,08,09,10,11,12,1.0,1.0,1.0*30
$GPRMC,134800.621,A,4741.734,N,00915.978,E,009.7,304.0,210618,000.0,W*79
$GPGGA,134801.621,4741.736,N,00915.976,E,1,12,1.0,0.0,M,0.0,M,,*65
$GPGSA,A,3,01,02,03,04,05,06,07,08,09,10,11,12,1.0,1.0,1.0*30
$GPRMC,134801.621,A,4741.736,N,00915.976,E,009.7,294.0,210618,000.0,W*7C
$GPGGA,134802.621,4741.738,N,00915.972,E,1,12,1.0,0.0,M,0.0,M,,*6C
$GPGSA,A,3,01,02,03,04,05,06,07,08,09,10,11,12,1.0,1.0,1.0*30
$GPRMC,134802.621,A,4741.738,N,00915.972,E,009.7,294.0,210618,000.0,W*75
$GPGGA,134803.621,4741.739,N,00915.969,E,1,12,1.0,0.0,M,0.0,M,,*66
$GPGSA,A,3,01,02,03,04,05,06,07,08,09,10,11,12,1.0,1.0,1.0*30
$GPRMC,134803.621,A,4741.739,N,00915.969,E,009.7,284.7,210618,000.0,W*79
$GPGGA,134804.621,4741.740,N,00915.965,E,1,12,1.0,0.0,M,0.0,M,,*63
$GPGSA,A,3,01,02,03,04,05,06,07,08,09,10,11,12,1.0,1.0,1.0*30
$GPRMC,134804.621,A,4741.740,N,00915.965,E,009.7,284.7,210618,000.0,W*7C
$GPGGA,134805.621,4741.741,N,00915.961,E,1,12,1.0,0.0,M,0.0,M,,*67
$GPGSA,A,3,01,02,03,04,05,06,07,08,09,10,11,12,1.0,1.0,1.0*30
$GPRMC,134805.621,A,4741.741,N,00915.961,E,009.7,265.1,210618,000.0,W*71
$GPGGA,134806.621,4741.741,N,00915.957,E,1,12,1.0,0.0,M,0.0,M,,*61
$GPGSA,A,3,01,02,03,04,05,06,07,08,09,10,11,12,1.0,1.0,1.0*30
$GPRMC,134806.621,A,4741.741,N,00915.957,E,009.7,248.2,210618,000.0,W*7B
$GPGGA,134807.621,4741.739,N,00915.954,E,1,12,1.0,0.0,M,0.0,M,,*6C
$GPGSA,A,3,01,02,03,04,05,06,07,08,09,10,11,12,1.0,1.0,1.0*30
$GPRMC,134807.621,A,4741.739,N,00915.954,E,009.7,248.2,210618,000.0,W*76
$GPGGA,134808.621,4741.738,N,00915.950,E,1,12,1.0,0.0,M,0.0,M,,*66
$GPGSA,A,3,01,02,03,04,05,06,07,08,09,10,11,12,1.0,1.0,1.0*30
$GPRMC,134808.621,A,4741.738,N,00915.950,E,009.7,192.0,210618,000.0,W*7A
$GPGGA,134809.621,4741.735,N,00915.950,E,1,12,1.0,0.0,M,0.0,M,,*6A
$GPGSA,A,3,01,02,03,04,05,06,07,08,09,10,11,12,1.0,1.0,1.0*30
$GPRMC,134809.621,A,4741.735,N,00915.950,E,009.7,192.0,210618,000.0,W*76
$GPGGA,134810.621,4741.733,N,00915.949,E,1,12,1.0,0.0,M,0.0,M,,*6C
$GPGSA,A,3,01,02,03,04,05,06,07,08,09,10,11,12,1.0,1.0,1.0*30
$GPRMC,134810.621,A,4741.733,N,00915.949,E,009.7,153.6,210618,000.0,W*7B
$GPGGA,134811.621,4741.730,N,00915.951,E,1,12,1.0,0.0,M,0.0,M,,*67
$GPGSA,A,3,01,02,03,04,05,06,07,08,09,10,11,12,1.0,1.0,1.0*30
$GPRMC,134811.621,A,4741.730,N,00915.951,E,009.7,147.6,210618,000.0,W*75
$GPGGA,134812.621,4741.728,N,00915.952,E,1,12,1.0,0.0,M,0.0,M,,*6E
$GPGSA,A,3,01,02,03,04,05,06,07,08,09,10,11,12,1.0,1.0,1.0*30
$GPRMC,134812.621,A,4741.728,N,00915.952,E,009.7,111.5,210618,000.0,W*7C
$GPGGA,134813.621,4741.726,N,00915.956,E,1,12,1.0,0.0,M,0.0,M,,*65
$GPGSA,A,3,01,02,03,04,05,06,07,08,09,10,11,12,1.0,1.0,1.0*30
$GPRMC,134813.621,A,4741.726,N,00915.956,E,009.7,111.5,210618,000.0,W*77
$GPGGA,134814.621,4741.725,N,00915.959,E,1,12,1.0,0.0,M,0.0,M,,*6E
$GPGSA,A,3,01,02,03,04,05,06,07,08,09,10,11,12,1.0,1.0,1.0*30
$GPRMC,134814.621,A,4741.725,N,00915.959,E,009.7,108.3,210618,000.0,W*72
$GPGGA,134815.621,4741.724,N,00915.963,E,1,12,1.0,0.0,M,0.0,M,,*67
$GPGSA,A,3,01,02,03,04,05,06,07,08,09,10,11,12,1.0,1.0,1.0*30
$GPRMC,134815.621,A,4741.724,N,00915.963,E,009.7,108.3,210618,000.0,W*7B
$GPGGA,134816.621,4741.722,N,00915.966,E,1,12,1.0,0.0,M,0.0,M,,*67
$GPGSA,A,3,01,02,03,04,05,06,07,08,09,10,11,12,1.0,1.0,1.0*30
$GPRMC,134816.621,A,4741.722,N,00915.966,E,009.7,108.3,210618,000.0,W*7B
$GPGGA,134817.621,4741.721,N,00915.970,E,1,12,1.0,0.0,M,0.0,M,,*62
$GPGSA,A,3,01,02,03,04,05,06,07,08,09,10,11,12,1.0,1.0,1.0*30
$GPRMC,134817.621,A,4741.721,N,00915.970,E,009.7,108.3,210618,000.0,W*7E
$GPGGA,134818.621,4741.720,N,00915.974,E,1,12,1.0,0.0,M,0.0,M,,*68
$GPGSA,A,3,01,02,03,04,05,06,07,08,09,10,11,12,1.0,1.0,1.0*30
$GPRMC,134818.621,A,4741.720,N,00915.974,E,009.7,108.3,210618,000.0,W*74
$GPGGA,134819.621,4741.719,N,00915.977,E,1,12,1.0,0.0,M,0.0,M,,*60
$GPGSA,A,3,01,02,03,04,05,06,07,08,09,10,11,12,1.0,1.0,1.0*30
$GPRMC,134819.621,A,4741.719,N,00915.977,E,009.7,108.3,210618,000.0,W*7C
$GPGGA,134820.621,4741.718,N,00915.981,E,1,12,1.0,0.0,M,0.0,M,,*62
$GPGSA,A,3,01,02,03,04,05,06,07,08,09,10,11,12,1.0,1.0,1.0*30
$GPRMC,134820.621,A,4741.718,N,00915.981,E,009.7,115.6,210618,000.0,W*77
$GPGGA,134821.621,4741.716,N,00915.984,E,1,12,1.0,0.0,M,0.0,M,,*68
$GPGSA,A,3,01,02,03,04,05,06,07,08,09,10,11,12,1.0,1.0,1.0*30
$GPRMC,134821.621,A,4741.716,N,00915.984,E,009.7,115.6,210618,000.0,W*7D
$GPGGA,134822.621,4741.715,N,00915.987,E,1,12,1.0,0.0,M,0.0,M,,*6B
$GPGSA,A,3,01,02,03,04,05,06,07,08,09,10,11,12,1.0,1.0,1.0*30
$GPRMC,134822.621,A,4741.715,N,00915.987,E,009.7,115.6,210618,000.0,W*7E
$GPGGA,134823.621,4741.713,N,00915.991,E,1,12,1.0,0.0,M,0.0,M,,*6B
$GPGSA,A,3,01,02,03,04,05,06,07,08,09,10,11,12,1.0,1.0,1.0*30
$GPRMC,134823.621,A,4741.713,N,00915.991,E,009.7,115.6,210618,000.0,W*7E
$GPGGA,134824.621,4741.711,N,00915.994,E,1,12,1.0,0.0,M,0.0,M,,*6B
$GPGSA,A,3,01,02,03,04,05,06,07,08,09,10,11,12,1.0,1.0,1.0*30
$GPRMC,134824.621,A,4741.711,N,00915.994,E,009.7,115.6,210618,000.0,W*7E
$GPGGA,134825.621,4741.710,N,00915.997,E,1,12,1.0,0.0,M,0.0,M,,*68
$GPGSA,A,3,01,02,03,04,05,06,07,08,09,10,11,12,1.0,1.0,1.0*30
$GPRMC,134825.621,A,4741.710,N,00915.997,E,009.7,115.6,210618,000.0,W*7D
$GPGGA,134826.621,4741.708,N,00916.000,E,1,12,1.0,0.0,M,0.0,M,,*66
$GPGSA,A,3,01,02,03,04,05,06,07,08,09,10,11,12,1.0,1.0,1.0*30
$GPRMC,134826.621,A,4741.708,N,00916.000,E,009.7,115.6,210618,000.0,W*73
$GPGGA,134827.621,4741.707,N,00916.004,E,1,12,1.0,0.0,M,0.0,M,,*6C
$GPGSA,A,3,01,02,03,04,05,06,07,08,09,10,11,12,1.0,1.0,1.0*30
$GPRMC,134827.621,A,4741.707,N,00916.004,E,009.7,115.6,210618,000.0,W*79
$GPGGA,134828.621,4741.705,N,00916.007,E,1,12,1.0,0.0,M,0.0,M,,*62
$GPGSA,A,3,01,02,03,04,05,06,07,08,09,10,11,12,1.0,1.0,1.0*30
$GPRMC,134828.621,A,4741.705,N,00916.007,E,009.7,115.6,210618,000.0,W*77
$GPGGA,134829.621,4741.704,N,00916.010,E,1,12,1.0,0.0,M,0.0,M,,*64
$GPGSA,A,3,01,02,03,04,05,06,07,08,09,10,11,12,1.0,1.0,1.0*30
$GPRMC,134829.621,A,4741.704,N,00916.010,E,009.7,118.2,210618,000.0,W*78
$GPGGA,134830.621,4741.702,N,00916.013,E,1,12,1.0,0.0,M,0.0,M,,*69
$GPGSA,A,3,01,02,03,04,05,06,07,08,09,10,11,12,1.0,1.0,1.0*30
$GPRMC,134830.621,A,4741.702,N,00916.013,E,009.7,118.2,210618,000.0,W*75
$GPGGA,134831.621,4741.700,N,00916.016,E,1,12,1.0,0.0,M,0.0,M,,*6F
$GPGSA,A,3,01,02,03,04,05,06,07,08,09,10,11,12,1.0,1.0,1.0*30
$GPRMC,134831.621,A,4741.700,N,00916.016,E,009.7,118.2,210618,000.0,W*73
$GPGGA,134832.621,4741.699,N,00916.020,E,1,12,1.0,0.0,M,0.0,M,,*68
$GPGSA,A,3,01,02,03,04,05,06,07,08,09,10,11,12,1.0,1.0,1.0*30
$GPRMC,134832.621,A,4741.699,N,00916.020,E,009.7,118.2,210618,000.0,W*74
$GPGGA,134833.621,4741.697,N,00916.023,E,1,12,1.0,0.0,M,0.0,M,,*64
$GPGSA,A,3,01,02,03,04,05,06,07,08,09,10,11,12,1.0,1.0,1.0*30
$GPRMC,134833.621,A,4741.697,N,00916.023,E,009.7,118.2,210618,000.0,W*78
$GPGGA,134834.621,4741.695,N,00916.026,E,1,12,1.0,0.0,M,0.0,M,,*64
$GPGSA,A,3,01,02,03,04,05,06,07,08,09,10,11,12,1.0,1.0,1.0*30
$GPRMC,134834.621,A,4741.695,N,00916.026,E,009.7,118.2,210618,000.0,W*78
$GPGGA,134835.621,4741.694,N,00916.029,E,1,12,1.0,0.0,M,0.0,M,,*6B
$GPGSA,A,3,01,02,03,04,05,06,07,08,09,10,11,12,1.0,1.0,1.0*30
$GPRMC,134835.621,A,4741.694,N,00916.029,E,009.7,118.2,210618,000.0,W*77
$GPGGA,134836.621,4741.692,N,00916.032,E,1,12,1.0,0.0,M,0.0,M,,*64
$GPGSA,A,3,01,02,03,04,05,06,07,08,09,10,11,12,1.0,1.0,1.0*30
$GPRMC,134836.621,A,4741.692,N,00916.032,E,009.7,121.4,210618,000.0,W*74
$GPGGA,134837.621,4741.690,N,00916.035,E,1,12,1.0,0.0,M,0.0,M,,*60
$GPGSA,A,3,01,02,03,04,05,06,07,08,09,10,11,12,1.0,1.0,1.0*30
$GPRMC,134837.621,A,4741.690,N,00916.035,E,009.7,121.4,210618,000.0,W*70
$GPGGA,134838.621,4741.688,N,00916.038,E,1,12,1.0,0.0,M,0.0,M,,*6B
$GPGSA,A,3,01,02,03,04,05,06,07,08,09,10,11,12,1.0,1.0,1.0*30
$GPRMC,134838.621,A,4741.688,N,00916.038,E,009.7,121.4,210618,000.0,W*7B
$GPGGA,134839.621,4741.687,N,00916.041,E,1,12,1.0,0.0,M,0.0,M,,*6B
$GPGSA,A,3,01,02,03,04,05,06,07,08,09,10,11,12,1.0,1.0,1.0*30
$GPRMC,134839.621,A,4741.687,N,00916.041,E,009.7,121.4,210618,000.0,W*7B
$GPGGA,134840.621,4741.685,N,00916.044,E,1,12,1.0,0.0,M,0.0,M,,*62
$GPGSA,A,3,01,02,03,04,05,06,07,08,09,10,11,12,1.0,1.0,1.0*30
$GPRMC,134840.621,A,4741.685,N,00916.044,E,009.7,121.4,210618,000.0,W*72
$GPGGA,134841.621,4741.683,N,00916.047,E,1,12,1.0,0.0,M,0.0,M,,*66
$GPGSA,A,3,01,02,03,04,05,06,07,08,09,10,11,12,1.0,1.0,1.0*30
$GPRMC,134841.621,A,4741.683,N,00916.047,E,009.7,121.4,210618,000.0,W*76
$GPGGA,134842.621,4741.681,N,00916.050,E,1,12,1.0,0.0,M,0.0,M,,*61
$GPGSA,A,3,01,02,03,04,05,06,07,08,09,10,11,12,1.0,1.0,1.0*30
$GPRMC,134842.621,A,4741.681,N,00916.050,E,009.7,121.4,210618,000.0,W*71
$GPGGA,134843.621,4741.679,N,00916.053,E,1,12,1.0,0.0,M,0.0,M,,*64
$GPGSA,A,3,01,02,03,04,05,06,07,08,09,10,11,12,1.0,1.0,1.0*30
$GPRMC,134843.621,A,4741.679,N,00916.053,E,009.7,121.4,210618,000.0,W*74
$GPGGA,134844.621,4741.677,N,00916.056,E,1,12,1.0,0.0,M,0.0,M,,*68
$GPGSA,A,3,01,02,03,04,05,06,07,08,09,10,11,12,1.0,1.0,1.0*30
$GPRMC,134844.621,A,4741.677,N,00916.056,E,009.7,121.4,210618,000.0,W*78
$GPGGA,134845.621,4741.676,N,00916.059,E,1,12,1.0,0.0,M,0.0,M,,*67
$GPGSA,A,3,01,02,03,04,05,06,07,08,09,10,11,12,1.0,1.0,1.0*30
$GPRMC,134845.621,A,4741.676,N,00916.059,E,009.7,121.4,210618,000.0,W*77
$GPGGA,134846.621,4741.674,N,00916.062,E,1,12,1.0,0.0,M,0.0,M,,*6E
$GPGSA,A,3,01,02,03,04,05,06,07,08,09,10,11,12,1.0,1.0,1.0*30
$GPRMC,134846.621,A,4741.674,N,00916.062,E,009.7,121.4,210618,000.0,W*7E
$GPGGA,134847.621,4741.672,N,00916.065,E,1,12,1.0,0.0,M,0.0,M,,*6E
$GPGSA,A,3,01,02,03,04,05,06,07,08,09,10,11,12,1.0,1.0,1.0*30
$GPRMC,134847.621,A,4741.672,N,00916.065,E,009.7,119.3,210618,000.0,W*72
$GPGGA,134848.621,4741.670,N,00916.068,E,1,12,1.0,0.0,M,0.0,M,,*6E
$GPGSA,A,3,01,02,03,04,05,06,07,08,09,10,11,12,1.0,1.0,1.0*30
$GPRMC,134848.621,A,4741.670,N,00916.068,E,009.7,119.3,210618,000.0,W*72
$GPGGA,134849.621,4741.669,N,00916.071,E,1,12,1.0,0.0,M,0.0,M,,*6F
$GPGSA,A,3,01,02,03,04,05,06,07,08,09,10,11,12,1.0,1.0,1.0*30
$GPRMC,134849.621,A,4741.669,N,00916.071,E,009.7,119.3,210618,000.0,W*73
$GPGGA,134850.621,4741.667,N,00916.074,E,1,12,1.0,0.0,M,0.0,M,,*6C
$GPGSA,A,3,01,02,03,04,05,06,07,08,09,10,11,12,1.0,1.0,1.0*30
$GPRMC,134850.621,A,4741.667,N,00916.074,E,009.7,119.3,210618,000.0,W*70
$GPGGA,134851.621,4741.665,N,00916.077,E,1,12,1.0,0.0,M,0.0,M,,*6C
$GPGSA,A,3,01,02,03,04,05,06,07,08,09,10,11,12,1.0,1.0,1.0*30
$GPRMC,134851.621,A,4741.665,N,00916.077,E,009.7,119.3,210618,000.0,W*70
$GPGGA,134852.621,4741.663,N,00916.080,E,1,12,1.0,0.0,M,0.0,M,,*61
$GPGSA,A,3,01,02,03,04,05,06,07,08,09,10,11,12,1.0,1.0,1.0*30
$GPRMC,134852.621,A,4741.663,N,00916.080,E,009.7,119.3,210618,000.0,W*7D
$GPGGA,134853.621,4741.662,N,00916.083,E,1,12,1.0,0.0,M,0.0,M,,*62
$GPGSA,A,3,01,02,03,04,05,06,07,08,09,10,11,12,1.0,1.0,1.0*30
$GPRMC,134853.621,A,4741.662,N,00916.083,E,009.7,119.3,210618,000.0,W*7E
$GPGGA,134854.621,4741.660,N,00916.086,E,1,12,1.0,0.0,M,0.0,M,,*62
$GPGSA,A,3,01,02,03,04,05,06,07,08,09,10,11,12,1.0,1.0,1.0*30
$GPRMC,134854.621,A,4741.660,N,00916.086,E,009.7,119.3,210618,000.0,W*7E
$GPGGA,134855.621,4741.658,N,00916.089,E,1,12,1.0,0.0,M,0.0,M,,*67
$GPGSA,A,3,01,02,03,04,05,06,07,08,09,10,11,12,1.0,1.0,1.0*30
$GPRMC,134855.621,A,4741.658,N,00916.089,E,009.7,119.3,210618,000.0,W*7B
$GPGGA,134856.621,4741.656,N,00916.093,E,1,12,1.0,0.0,M,0.0,M,,*61
$GPGSA,A,3,01,02,03,04,05,06,07,08,09,10,11,12,1.0,1.0,1.0*30
$GPRMC,134856.621,A,4741.656,N,00916.093,E,009.7,122.6,210618,000.0,W*70
$GPGGA,134857.621,4741.655,N,00916.095,E,1,12,1.0,0.0,M,0.0,M,,*65
$GPGSA,A,3,01,02,03,04,05,06,07,08,09,10,11,12,1.0,1.0,1.0*30
$GPRMC,134857.621,A,4741.655,N,00916.095,E,009.7,122.6,210618,000.0,W*74
$GPGGA,134858.621,4741.653,N,00916.098,E,1,12,1.0,0.0,M,0.0,M,,*61
$GPGSA,A,3,01,02,03,04,05,06,07,08,09,10,11,12,1.0,1.0,1.0*30
$GPRMC,134858.621,A,4741.653,N,00916.098,E,009.7,122.6,210618,000.0,W*70
$GPGGA,134859.621,4741.651,N,00916.101,E,1,12,1.0,0.0,M,0.0,M,,*63
$GPGSA,A,3,01,02,03,04,05,06,07,08,09,10,11,12,1.0,1.0,1.0*30
$GPRMC,134859.621,A,4741.651,N,00916.101,E,009.7,122.6,210618,000.0,W*72
$GPGGA,134900.621,4741.649,N,00916.104,E,1,12,1.0,0.0,M,0.0,M,,*62
$GPGSA,A,3,01,02,03,04,05,06,07,08,09,10,11,12,1.0,1.0,1.0*30
$GPRMC,134900.621,A,4741.649,N,00916.104,E,009.7,147.8,210618,000.0,W*7E
$GPGGA,134901.621,4741.647,N,00916.106,E,1,12,1.0,0.0,M,0.0,M,,*6F
$GPGSA,A,3,01,02,03,04,05,06,07,08,09,10,11,12,1.0,1.0,1.0*30
$GPRMC,134901.621,A,4741.647,N,00916.106,E,009.7,147.8,210618,000.0,W*73
$GPGGA,134902.621,4741.644,N,00916.107,E,1,12,1.0,0.0,M,0.0,M,,*6E
$GPGSA,A,3,01,02,03,04,05,06,07,08,09,10,11,12,1.0,1.0,1.0*30
$GPRMC,134902.621,A,4741.644,N,00916.107,E,009.7,205.2,210618,000.0,W*7D
$GPGGA,134903.621,4741.642,N,00916.106,E,1,12,1.0,0.0,M,0.0,M,,*68
$GPGSA,A,3,01,02,03,04,05,06,07,08,09,10,11,12,1.0,1.0,1.0*30
$GPRMC,134903.621,A,4741.642,N,00916.106,E,009.7,205.2,210618,000.0,W*7B
$GPGGA,134904.621,4741.639,N,00916.105,E,1,12,1.0,0.0,M,0.0,M,,*60
$GPGSA,A,3,01,02,03,04,05,06,07,08,09,10,11,12,1.0,1.0,1.0*30
$GPRMC,134904.621,A,4741.639,N,00916.105,E,009.7,245.3,210618,000.0,W*76
$GPGGA,134905.621,4741.637,N,00916.102,E,1,12,1.0,0.0,M,0.0,M,,*68
$GPGSA,A,3,01,02,03,04,05,06,07,08,09,10,11,12,1.0,1.0,1.0*30
$GPRMC,134905.621,A,4741.637,N,00916.102,E,009.7,245.3,210618,000.0,W*7E
$GPGGA,134906.621,4741.636,N,00916.098,E,1,12,1.0,0.0,M,0.0,M,,*68
$GPGSA,A,3,01,02,03,04,05,06,07,08,09,10,11,12,1.0,1.0,1.0*30
$GPRMC,134906.621,A,4741.636,N,00916.098,E,009.7,262.1,210618,000.0,W*79
$GPGGA,134907.621,4741.635,N,00916.094,E,1,12,1.0,0.0,M,0.0,M,,*66
$GPGSA,A,3,01,02,03,04,05,06,07,08,09,10,11,12,1.0,1.0,1.0*30
$GPRMC,134907.621,A,4741.635,N,00916.094,E,009.7,273.7,210618,000.0,W*71
$GPGGA,134908.621,4741.636,N,00916.090,E,1,12,1.0,0.0,M,0.0,M,,*6E
$GPGSA,A,3,01,02,03,04,05,06,07,08,09,10,11,12,1.0,1.0,1.0*30
$GPRMC,134908.621,A,4741.636,N,00916.090,E,009.7,273.7,210618,000.0,W*79
$GPGGA,134909.621,4741.636,N,00916.086,E,1,12,1.0,0.0,M,0.0,M,,*68
$GPGSA,A,3,01,02,03,04,05,06,07,08,09,10,11,12,1.0,1.0,1.0*30
$GPRMC,134909.621,A,4741.636,N,00916.086,E,009.7,273.7,210618,000.0,W*7F
$GPGGA,134910.621,4741.636,N,00916.082,E,1,12,1.0,0.0,M,0.0,M,,*64
$GPGSA,A,3,01,02,03,04,05,06,07,08,09,10,11,12,1.0,1.0,1.0*30
$GPRMC,134910.621,A,4741.636,N,00916.082,E,009.7,273.7,210618,000.0,W*73
$GPGGA,134911.621,4741.636,N,00916.078,E,1,12,1.0,0.0,M,0.0,M,,*60
$GPGSA,A,3,01,02,03,04,05,06,07,08,09,10,11,12,1.0,1.0,1.0*30
$GPRMC,134911.621,A,4741.636,N,00916.078,E,009.7,275.8,210618,000.0,W*7E
$GPGGA,134912.621,4741.637,N,00916.074,E,1,12,1.0,0.0,M,0.0,M,,*6E
$GPGSA,A,3,01,02,03,04,05,06,07,08,09,10,11,12,1.0,1.0,1.0*30
$GPRMC,134912.621,A,4741.637,N,00916.074,E,009.7,275.8,210618,000.0,W*70
$GPGGA,134913.621,4741.637,N,00916.070,E,1,12,1.0,0.0,M,0.0,M,,*6B
$GPGSA,A,3,01,02,03,04,05,06,07,08,09,10,11,12,1.0,1.0,1.0*30
$GPRMC,134913.621,A,4741.637,N,00916.070,E,009.7,275.8,210618,000.0,W*75
$GPGGA,134914.621,4741.638,N,00916.066,E,1,12,1.0,0.0,M,0.0,M,,*64
$GPGSA,A,3,01,02,03,04,05,06,07,08,09,10,11,12,1.0,1.0,1.0*30
$GPRMC,134914.621,A,4741.638,N,00916.066,E,009.7,275.8,210618,000.0,W*7A
$GPGGA,134915.621,4741.638,N,00916.063,E,1,12,1.0,0.0,M,0.0,M,,*60
$GPGSA,A,3,01,02,03,04,05,06,07,08,09,10,11,12,1.0,1.0,1.0*30
$GPRMC,134915.621,A,4741.638,N,00916.063,E,009.7,275.8,210618,000.0,W*7E
$GPGGA,134916.621,4741.638,N,00916.059,E,1,12,1.0,0.0,M,0.0,M,,*6A
$GPGSA,A,3,01,02,03,04,05,06,07,08,09,10,11,12,1.0,1.0,1.0*30
$GPRMC,134916.621,A,4741.638,N,00916.059,E,009.7,275.8,210618,000.0,W*74
$GPGGA,134917.621,4741.639,N,00916.055,E,1,12,1.0,0.0,M,0.0,M,,*66
$GPGSA,A,3,01,02,03,04,05,06,07,08,09,10,11,12,1.0,1.0,1.0*30
$GPRMC,134917.621,A,4741.639,N,00916.055,E,009.7,275.8,210618,000.0,W*78
$GPGGA,134918.621,4741.639,N,00916.051,E,1,12,1.0,0.0,M,0.0,M,,*6D
$GPGSA,A,3,01,02,03,04,05,06,07,08,09,10,11,12,1.0,1.0,1.0*30
$GPRMC,134918.621,A,4741.639,N,00916.051,E,009.7,275.8,210618,000.0,W*73
$GPGGA,134919.621,4741.640,N,00916.047,E,1,12,1.0,0.0,M,0.0,M,,*65
$GPGSA,A,3,01,02,03,04,05,06,07,08,09,10,11,12,1.0,1.0,1.0*30
$GPRMC,134919.621,A,4741.640,N,00916.047,E,009.7,275.8,210618,000.0,W*7B
$GPGGA,134920.621,4741.640,N,00916.043,E,1,12,1.0,0.0,M,0.0,M,,*6B
$GPGSA,A,3,01,02,03,04,05,06,07,08,09,10,11,12,1.0,1.0,1.0*30
$GPRMC,134920.621,A,4741.640,N,00916.043,E,009.7,275.8,210618,000.0,W*75
$GPGGA,134921.621,4741.640,N,00916.039,E,1,12,1.0,0.0,M,0.0,M,,*67
$GPGSA,A,3,01,02,03,04,05,06,07,08,09,10,11,12,1.0,1.0,1.0*30
$GPRMC,134921.621,A,4741.640,N,00916.039,E,009.7,275.8,210618,000.0,W*79
$GPGGA,134922.621,4741.641,N,00916.035,E,1,12,1.0,0.0,M,0.0,M,,*69
$GPGSA,A,3,01,02,03,04,05,06,07,08,09,10,11,12,1.0,1.0,1.0*30
$GPRMC,134922.621,A,4741.641,N,00916.035,E,009.7,275.8,210618,000.0,W*77
$GPGGA,134923.621,4741.641,N,00916.031,E,1,12,1.0,0.0,M,0.0,M,,*6C
$GPGSA,A,3,01,02,03,04,05,06,07,08,09,10,11,12,1.0,1.0,1.0*30
$GPRMC,134923.621,A,4741.641,N,00916.031,E,009.7,275.8,210618,000.0,W*72
$GPGGA,134924.621,4741.642,N,00916.027,E,1,12,1.0,0.0,M,0.0,M,,*6F
$GPGSA,A,3,01,02,03,04,05,06,07,08,09,10,11,12,1.0,1.0,1.0*30
$GPRMC,134924.621,A,4741.642,N,00916.027,E,009.7,277.0,210618,000.0,W*7B
$GPGGA,134925.621,4741.642,N,00916.023,E,1,12,1.0,0.0,M,0.0,M,,*6A
$GPGSA,A,3,01,02,03,04,05,06,07,08,09,10,11,12,1.0,1.0,1.0*30
$GPRMC,134925.621,A,4741.642,N,00916.023,E,009.7,277.0,210618,000.0,W*7E
$GPGGA,134926.621,4741.643,N,00916.019,E,1,12,1.0,0.0,M,0.0,M,,*61
$GPGSA,A,3,01,02,03,04,05,06,07,08,09,10,11,12,1.0,1.0,1.0*30
$GPRMC,134926.621,A,4741.643,N,00916.019,E,009.7,277.0,210618,000.0,W*75
$GPGGA,134927.621,4741.643,N,00916.015,E,1,12,1.0,0.0,M,0.0,M,,*6C
$GPGSA,A,3,01,02,03,04,05,06,07,08,09,10,11,12,1.0,1.0,1.0*30
$GPRMC,134927.621,A,4741.643,N,00916.015,E,009.7,277.0,210618,000.0,W*78
$GPGGA,134928.621,4741.644,N,00916.011,E,1,12,1.0,0.0,M,0.0,M,,*60
$GPGSA,A,3,01,02,03,04,05,06,07,08,09,10,11,12,1.0,1.0,1.0*30
$GPRMC,134928.621,A,4741.644,N,00916.011,E,009.7,277.0,210618,000.0,W*74
$GPGGA,134929.621,4741.644,N,00916.007,E,1,12,1.0,0.0,M,0.0,M,,*66
$GPGSA,A,3,01,02,03,04,05,06,07,08,09,10,11,12,1.0,1.0,1.0*30
$GPRMC,134929.621,A,4741.644,N,00916.007,E,009.7,277.0,210618,000.0,W*72
$GPGGA,134930.621,4741.644,N,00916.003,E,1,12,1.0,0.0,M,0.0,M,,*6A
$GPGSA,A,3,01,02,03,04,05,06,07,08,09,10,11,12,1.0,1.0,1.0*30
$GPRMC,134930.621,A,4741.644,N,00916.003,E,009.7,277.0,210618,000.0,W*7E
$GPGGA,134931.621,4741.645,N,00915.999,E,1,12,1.0,0.0,M,0.0,M,,*63
$GPGSA,A,3,01,02,03,04,05,06,07,08,09,10,11,12,1.0,1.0,1.0*30
$GPRMC,134931.621,A,4741.645,N,00915.999,E,009.7,277.0,210618,000.0,W*77
$GPGGA,134932.621,4741.645,N,00915.995,E,1,12,1.0,0.0,M,0.0,M,,*6C
$GPGSA,A,3,01,02,03,04,05,06,07,08,09,10,11,12,1.0,1.0,1.0*30
$GPRMC,134932.621,A,4741.645,N,00915.995,E,009.7,277.0,210618,000.0,W*78
$GPGGA,134933.621,4741.646,N,00915.991,E,1,12,1.0,0.0,M,0.0,M,,*6A
$GPGSA,A,3,01,02,03,04,05,06,07,08,09,10,11,12,1.0,1.0,1.0*30
$GPRMC,134933.621,A,4741.646,N,00915.991,E,009.7,268.6,210618,000.0,W*76
$GPGGA,134934.621,4741.646,N,00915.987,E,1,12,1.0,0.0,M,0.0,M,,*6A
$GPGSA,A,3,01,02,03,04,05,06,07,08,09,10,11,12,1.0,1.0,1.0*30
$GPRMC,134934.621,A,4741.646,N,00915.987,E,009.7,268.6,210618,000.0,W*76
$GPGGA,134935.621,4741.646,N,00915.983,E,1,12,1.0,0.0,M,0.0,M,,*6F
$GPGSA,A,3,01,02,03,04,05,06,07,08,09,10,11,12,1.0,1.0,1.0*30
$GPRMC,134935.621,A,4741.646,N,00915.983,E,009.7,268.6,210618,000.0,W*73
$GPGGA,134936.621,4741.646,N,00915.979,E,1,12,1.0,0.0,M,0.0,M,,*69
$GPGSA,A,3,01,02,03,04,05,06,07,08,09,10,11,12,1.0,1.0,1.0*30
$GPRMC,134936.621,A,4741.646,N,00915.979,E,009.7,285.3,210618,000.0,W*73
$GPGGA,134937.621,4741.647,N,00915.976,E,1,12,1.0,0.0,M,0.0,M,,*66
$GPGSA,A,3,01,02,03,04,05,06,07,08,09,10,11,12,1.0,1.0,1.0*30
$GPRMC,134937.621,A,4741.647,N,00915.976,E,009.7,285.3,210618,000.0,W*7C
$GPGGA,134938.621,4741.648,N,00915.972,E,1,12,1.0,0.0,M,0.0,M,,*62
$GPGSA,A,3,01,02,03,04,05,06,07,08,09,10,11,12,1.0,1.0,1.0*30
$GPRMC,134938.621,A,4741.648,N,00915.972,E,009.7,285.3,210618,000.0,W*78
$GPGGA,134939.621,4741.649,N,00915.968,E,1,12,1.0,0.0,M,0.0,M,,*69
$GPGSA,A,3,01,02,03,04,05,06,07,08,09,10,11,12,1.0,1.0,1.0*30
$GPRMC,134939.621,A,4741.649,N,00915.968,E,009.7,296.2,210618,000.0,W*70
$GPGGA,134940.621,4741.650,N,00915.965,E,1,12,1.0,0.0,M,0.0,M,,*62
$GPGSA,A,3,01,02,03,04,05,06,07,08,09,10,11,12,1.0,1.0,1.0*30
$GPRMC,134940.621,A,4741.650,N,00915.965,E,009.7,296.2,210618,000.0,W*7B
$GPGGA,134941.621,4741.652,N,00915.962,E,1,12,1.0,0.0,M,0.0,M,,*66
$GPGSA,A,3,01,02,03,04,05,06,07,08,09,10,11,12,1.0,1.0,1.0*30
$GPRMC,134941.621,A,4741.652,N,00915.962,E,009.7,296.2,210618,000.0,W*7F
$GPGGA,134942.621,4741.653,N,00915.958,E,1,12,1.0,0.0,M,0.0,M,,*6D
$GPGSA,A,3,01,02,03,04,05,06,07,08,09,10,11,12,1.0,1.0,1.0*30
$GPRMC,134942.621,A,4741.653,N,00915.958,E,009.7,296.2,210618,000.0,W*74
$GPGGA,134943.621,4741.655,N,00915.955,E,1,12,1.0,0.0,M,0.0,M,,*67
$GPGSA,A,3,01,02,03,04,05,06,07,08,09,10,11,12,1.0,1.0,1.0*30
$GPRMC,134943.621,A,4741.655,N,00915.955,E,009.7,296.2,210618,000.0,W*7E
$GPGGA,134944.621,4741.657,N,00915.952,E,1,12,1.0,0.0,M,0.0,M,,*65
$GPGSA,A,3,01,02,03,04,05,06,07,08,09,10,11,12,1.0,1.0,1.0*30
$GPRMC,134944.621,A,4741.657,N,00915.952,E,009.7,296.2,210618,000.0,W*7C
$GPGGA,134945.621,4741.658,N,00915.949,E,1,12,1.0,0.0,M,0.0,M,,*61
$GPGSA,A,3,01,02,03,04,05,06,07,08,09,10,11,12,1.0,1.0,1.0*30
$GPRMC,134945.621,A,4741.658,N,00915.949,E,009.7,296.2,210618,000.0,W*78
$GPGGA,134946.621,4741.660,N,00915.946,E,1,12,1.0,0.0,M,0.0,M,,*66
$GPGSA,A,3,01,02,03,04,05,06,07,08,09,10,11,12,1.0,1.0,1.0*30
$GPRMC,134946.621,A,4741.660,N,00915.946,E,009.7,296.2,210618,000.0,W*7F
$GPGGA,134947.621,4741.661,N,00915.942,E,1,12,1.0,0.0,M,0.0,M,,*62
$GPGSA,A,3,01,02,03,04,05,06,07,08,09,10,11,12,1.0,1.0,1.0*30
$GPRMC,134947.621,A,4741.661,N,00915.942,E,009.7,296.2,210618,000.0,W*7B
$GPGGA,134948.621,4741.663,N,00915.939,E,1,12,1.0,0.0,M,0.0,M,,*63
$GPGSA,A,3,01,02,03,04,05,06,07,08,09,10,11,12,1.0,1.0,1.0*30
$GPRMC,134948.621,A,4741.663,N,00915.939,E,009.7,296.2,210618,000.0,W*7A
$GPGGA,134949.621,4741.665,N,00915.936,E,1,12,1.0,0.0,M,0.0,M,,*6B
$GPGSA,A,3,01,02,03,04,05,06,07,08,09,10,11,12,1.0,1.0,1.0*30
$GPRMC,134949.621,A,4741.665,N,00915.936,E,009.7,296.2,210618,000.0,W*72
$GPGGA,134950.621,4741.666,N,00915.933,E,1,12,1.0,0.0,M,0.0,M,,*65
$GPGSA,A,3,01,02,03,04,05,06,07,08,09,10,11,12,1.0,1.0,1.0*30
$GPRMC,134950.621,A,4741.666,N,00915.933,E,009.7,296.2,210618,000.0,W*7C
$GPGGA,134951.621,4741.668,N,00915.929,E,1,12,1.0,0.0,M,0.0,M,,*61
$GPGSA,A,3,01,02,03,04,05,06,07,08,09,10,11,12,1.0,1.0,1.0*30
$GPRMC,134951.621,A,4741.668,N,00915.929,E,009.7,296.2,210618,000.0,W*78
$GPGGA,134952.621,4741.669,N,00915.926,E,1,12,1.0,0.0,M,0.0,M,,*6C
$GPGSA,A,3,01,02,03,04,05,06,07,08,09,10,11,12,1.0,1.0,1.0*30
$GPRMC,134952.621,A,4741.669,N,00915.926,E,009.7,296.2,210618,000.0,W*75
$GPGGA,134953.621,4741.671,N,00915.923,E,1,12,1.0,0.0,M,0.0,M,,*61
$GPGSA,A,3,01,02,03,04,05,06,07,08,09,10,11,12,1.0,1.0,1.0*30
$GPRMC,134953.621,A,4741.671,N,00915.923,E,009.7,296.2,210618,000.0,W*78
$GPGGA,134954.621,4741.673,N,00915.920,E,1,12,1.0,0.0,M,0.0,M,,*67
$GPGSA,A,3,01,02,03,04,05,06,07,08,09,10,11,12,1.0,1.0,1.0*30
$GPRMC,134954.621,A,4741.673,N,00915.920,E,009.7,296.2,210618,000.0,W*7E
$GPGGA,134955.621,4741.674,N,00915.916,E,1,12,1.0,0.0,M,0.0,M,,*64
$GPGSA,A,3,01,02,03,04,05,06,07,08,09,10,11,12,1.0,1.0,1.0*30
$GPRMC,134955.621,A,4741.674,N,00915.916,E,009.7,298.4,210618,000.0,W*75
$GPGGA,134956.621,4741.676,N,00915.913,E,1,12,1.0,0.0,M,0.0,M,,*60
$GPGSA,A,3,01,02,03,04,05,06,07,08,09,10,11,12,1.0,1.0,1.0*30
$GPRMC,134956.621,A,4741.676,N,00915.913,E,009.7,298.4,210618,000.0,W*71
$GPGGA,134957.621,4741.677,N,00915.910,E,1,12,1.0,0.0,M,0.0,M,,*63
$GPGSA,A,3,01,02,03,04,05,06,07,08,09,10,11,12,1.0,1.0,1.0*30
$GPRMC,134957.621,A,4741.677,N,00915.910,E,009.7,298.4,210618,000.0,W*72
$GPGGA,134958.621,4741.679,N,00915.907,E,1,12,1.0,0.0,M,0.0,M,,*64
$GPGSA,A,3,01,02,03,04,05,06,07,08,09,10,11,12,1.0,1.0,1.0*30
$GPRMC,134958.621,A,4741.679,N,00915.907,E,009.7,298.4,210618,000.0,W*75
$GPGGA,134959.621,4741.681,N,00915.904,E,1,12,1.0,0.0,M,0.0,M,,*61
$GPGSA,A,3,01,02,03,04,05,06,07,08,09,10,11,12,1.0,1.0,1.0*30
$GPRMC,134959.621,A,4741.681,N,00915.904,E,009.7,298.4,210618,000.0,W*70
$GPGGA,135000.621,4741.683,N,00915.901,E,1,12,1.0,0.0,M,0.0,M,,*62
$GPGSA,A,3,01,02,03,04,05,06,07,08,09,10,11,12,1.0,1.0,1.0*30
$GPRMC,135000.621,A,4741.683,N,00915.901,E,009.7,298.4,210618,000.0,W*73
$GPGGA,135001.621,4741.684,N,00915.898,E,1,12,1.0,0.0,M,0.0,M,,*65
$GPGSA,A,3,01,02,03,04,05,06,07,08,09,10,11,12,1.0,1.0,1.0*30
$GPRMC,135001.621,A,4741.684,N,00915.898,E,009.7,298.4,210618,000.0,W*74
$GPGGA,135002.621,4741.686,N,00915.894,E,1,12,1.0,0.0,M,0.0,M,,*68
$GPGSA,A,3,01,02,03,04,05,06,07,08,09,10,11,12,1.0,1.0,1.0*30
$GPRMC,135002.621,A,4741.686,N,00915.894,E,009.7,298.4,210618,000.0,W*79
$GPGGA,135003.621,4741.688,N,00915.891,E,1,12,1.0,0.0,M,0.0,M,,*62
$GPGSA,A,3,01,02,03,04,05,06,07,08,09,10,11,12,1.0,1.0,1.0*30
$GPRMC,135003.621,A,4741.688,N,00915.891,E,009.7,298.4,210618,000.0,W*73
$GPGGA,135004.621,4741.689,N,00915.888,E,1,12,1.0,0.0,M,0.0,M,,*6C
$GPGSA,A,3,01,02,03,04,05,06,07,08,09,10,11,12,1.0,1.0,1.0*30
$GPRMC,135004.621,A,4741.689,N,00915.888,E,009.7,298.4,210618,000.0,W*7D
$GPGGA,135005.621,4741.691,N,00915.885,E,1,12,1.0,0.0,M,0.0,M,,*69
$GPGSA,A,3,01,02,03,04,05,06,07,08,09,10,11,12,1.0,1.0,1.0*30
$GPRMC,135005.621,A,4741.691,N,00915.885,E,009.7,294.3,210618,000.0,W*73
$GPGGA,135006.621,4741.692,N,00915.882,E,1,12,1.0,0.0,M,0.0,M,,*6E
$GPGSA,A,3,01,02,03,04,05,06,07,08,09,10,11,12,1.0,1.0,1.0*30
$GPRMC,135006.621,A,4741.692,N,00915.882,E,009.7,294.3,210618,000.0,W*74
$GPGGA,135007.621,4741.694,N,00915.878,E,1,12,1.0,0.0,M,0.0,M,,*6C
$GPGSA,A,3,01,02,03,04,05,06,07,08,09,10,11,12,1.0,1.0,1.0*30
$GPRMC,135007.621,A,4741.694,N,00915.878,E,009.7,294.3,210618,000.0,W*76
$GPGGA,135008.621,4741.695,N,00915.875,E,1,12,1.0,0.0,M,0.0,M,,*6F
$GPGSA,A,3,01,02,03,04,05,06,07,08,09,10,11,12,1.0,1.0,1.0*30
$GPRMC,135008.621,A,4741.695,N,00915.875,E,009.7,294.3,210618,000.0,W*75
$GPGGA,135009.621,4741.697,N,00915.872,E,1,12,1.0,0.0,M,0.0,M,,*6B
$GPGSA,A,3,01,02,03,04,05,06,07,08,09,10,11,12,1.0,1.0,1.0*30
$GPRMC,135009.621,A,4741.697,N,00915.872,E,009.7,294.3,210618,000.0,W*71
$GPGGA,135010.621,4741.698,N,00915.868,E,1,12,1.0,0.0,M,0.0,M,,*67
$GPGSA,A,3,01,02,03,04,05,06,07,08,09,10,11,12,1.0,1.0,1.0*30
$GPRMC,135010.621,A,4741.698,N,00915.868,E,009.7,294.3,210618,000.0,W*7D
$GPGGA,135011.621,4741.700,N,00915.865,E,1,12,1.0,0.0,M,0.0,M,,*6B
$GPGSA,A,3,01,02,03,04,05,06,07,08,09,10,11,12,1.0,1.0,1.0*30
$GPRMC,135011.621,A,4741.700,N,00915.865,E,009.7,294.3,210618,000.0,W*71
$GPGGA,135012.621,4741.701,N,00915.862,E,1,12,1.0,0.0,M,0.0,M,,*6E
$GPGSA,A,3,01,02,03,04,05,06,07,08,09,10,11,12,1.0,1.0,1.0*30
$GPRMC,135012.621,A,4741.701,N,00915.862,E,009.7,294.3,210618,000.0,W*74
$GPGGA,135013.621,4741.703,N,00915.858,E,1,12,1.0,0.0,M,0.0,M,,*64
$GPGSA,A,3,01,02,03,04,05,06,07,08,09,10,11,12,1.0,1.0,1.0*30
$GPRMC,135013.621,A,4741.703,N,00915.858,E,009.7,294.3,210618,000.0,W*7E
$GPGGA,135014.621,4741.704,N,00915.855,E,1,12,1.0,0.0,M,0.0,M,,*69
$GPGSA,A,3,01,02,03,04,05,06,07,08,09,10,11,12,1.0,1.0,1.0*30
$GPRMC,135014.621,A,4741.704,N,00915.855,E,009.7,294.3,210618,000.0,W*73
$GPGGA,135015.621,4741.706,N,00915.852,E,1,12,1.0,0.0,M,0.0,M,,*6D
$GPGSA,A,3,01,02,03,04,05,06,07,08,09,10,11,12,1.0,1.0,1.0*30
$GPRMC,135015.621,A,4741.706,N,00915.852,E,009.7,294.3,210618,000.0,W*77
$GPGGA,135016.621,4741.707,N,00915.848,E,1,12,1.0,0.0,M,0.0,M,,*64
$GPGSA,A,3,01,02,03,04,05,06,07,08,09,10,11,12,1.0,1.0,1.0*30
$GPRMC,135016.621,A,4741.707,N,00915.848,E,009.7,294.3,210618,000.0,W*7E
$GPGGA,135017.621,4741.709,N,00915.845,E,1,12,1.0,0.0,M,0.0,M,,*66
$GPGSA,A,3,01,02,03,04,05,06,07,08,09,10,11,12,1.0,1.0,1.0*30
$GPRMC,135017.621,A,4741.709,N,00915.845,E,009.7,294.3,210618,000.0,W*7C
$GPGGA,135018.621,4741.710,N,00915.842,E,1,12,1.0,0.0,M,0.0,M,,*66
$GPGSA,A,3,01,02,03,04,05,06,07,08,09,10,11,12,1.0,1.0,1.0*30
$GPRMC,135018.621,A,4741.710,N,00915.842,E,009.7,294.3,210618,000.0,W*7C
$GPGGA,135019.621,4741.712,N,00915.838,E,1,12,1.0,0.0,M,0.0,M,,*68
$GPGSA,A,3,01,02,03,04,05,06,07,08,09,10,11,12,1.0,1.0,1.0*30
$GPRMC,135019.621,A,4741.712,N,00915.838,E,009.7,294.3,210618,000.0,W*72
$GPGGA,135020.621,4741.713,N,00915.835,E,1,12,1.0,0.0,M,0.0,M,,*6E
$GPGSA,A,3,01,02,03,04,05,06,07,08,09,10,11,12,1.0,1.0,1.0*30
$GPRMC,135020.621,A,4741.713,N,00915.835,E,009.7,294.3,210618,000.0,W*74
$GPGGA,135021.621,4741.715,N,00915.832,E,1,12,1.0,0.0,M,0.0,M,,*6E
$GPGSA,A,3,01,02,03,04,05,06,07,08,09,10,11,12,1.0,1.0,1.0*30
$GPRMC,135021.621,A,4741.715,N,00915.832,E,009.7,286.0,210618,000.0,W*74
$GPGGA,135022.621,4741.716,N,00915.828,E,1,12,1.0,0.0,M,0.0,M,,*65
$GPGSA,A,3,01,02,03,04,05,06,07,08,09,10,11,12,1.0,1.0,1.0*30
$GPRMC,135022.621,A,4741.716,N,00915.828,E,009.7,286.0,210618,000.0,W*7F
$GPGGA,135023.621,4741.717,N,00915.824,E,1,12,1.0,0.0,M,0.0,M,,*69
$GPGSA,A,3,01,02,03,04,05,06,07,08,09,10,11,12,1.0,1.0,1.0*30
$GPRMC,135023.621,A,4741.717,N,00915.824,E,009.7,286.0,210618,000.0,W*73
$GPGGA,135024.621,4741.718,N,00915.821,E,1,12,1.0,0.0,M,0.0,M,,*64
$GPGSA,A,3,01,02,03,04,05,06,07,08,09,10,11,12,1.0,1.0,1.0*30
$GPRMC,135024.621,A,4741.718,N,00915.821,E,009.7,286.0,210618,000.0,W*7E
$GPGGA,135025.621,4741.719,N,00915.817,E,1,12,1.0,0.0,M,0.0,M,,*61
$GPGSA,A,3,01,02,03,04,05,06,07,08,09,10,11,12,1.0,1.0,1.0*30
$GPRMC,135025.621,A,4741.719,N,00915.817,E,019.4,254.9,210618,000.0,W*7F
$GPGGA,135026.621,4741.717,N,00915.810,E,1,12,1.0,0.0,M,0.0,M,,*6B
$GPGSA,A,3,01,02,03,04,05,06,07,08,09,10,11,12,1.0,1.0,1.0*30
$GPRMC,135026.621,A,4741.717,N,00915.810,E,019.4,254.9,210618,000.0,W*75
$GPGGA,135027.621,4741.715,N,00915.802,E,1,12,1.0,0.0,M,0.0,M,,*6B
$GPGSA,A,3,01,02,03,04,05,06,07,08,09,10,11,12,1.0,1.0,1.0*30
$GPRMC,135027.621,A,4741.715,N,00915.802,E,019.4,254.9,210618,000.0,W*75
$GPGGA,135028.621,4741.713,N,00915.795,E,1,12,1.0,0.0,M,0.0,M,,*63
$GPGSA,A,3,01,02,03,04,05,06,07,08,09,10,11,12,1.0,1.0,1.0*30
$GPRMC,135028.621,A,4741.713,N,00915.795,E,019.4,254.9,210618,000.0,W*7D
$GPGGA,135029.621,4741.711,N,00915.787,E,1,12,1.0,0.0,M,0.0,M,,*63
$GPGSA,A,3,01,02,03,04,05,06,07,08,09,10,11,12,1.0,1.0,1.0*30
$GPRMC,135029.621,A,4741.711,N,00915.787,E,019.4,254.9,210618,000.0,W*7D
$GPGGA,135030.621,4741.709,N,00915.780,E,1,12,1.0,0.0,M,0.0,M,,*65
$GPGSA,A,3,01,02,03,04,05,06,07,08,09,10,11,12,1.0,1.0,1.0*30
$GPRMC,135030.621,A,4741.709,N,00915.780,E,019.4,254.9,210618,000.0,W*7B
$GPGGA,135031.621,4741.707,N,00915.772,E,1,12,1.0,0.0,M,0.0,M,,*67
$GPGSA,A,3,01,02,03,04,05,06,07,08,09,10,11,12,1.0,1.0,1.0*30
$GPRMC,135031.621,A,4741.707,N,00915.772,E,019.4,254.9,210618,000.0,W*79
$GPGGA,135032.621,4741.705,N,00915.765,E,1,12,1.0,0.0,M,0.0,M,,*60
$GPGSA,A,3,01,02,03,04,05,06,07,08,09,10,11,12,1.0,1.0,1.0*30
$GPRMC,135032.621,A,4741.705,N,00915.765,E,019.4,254.9,210618,000.0,W*7E
$GPGGA,135033.621,4741.703,N,00915.757,E,1,12,1.0,0.0,M,0.0,M,,*66
$GPGSA,A,3,01,02,03,04,05,06,07,08,09,10,11,12,1.0,1.0,1.0*30
$GPRMC,135033.621,A,4741.703,N,00915.757,E,019.4,254.9,210618,000.0,W*78
