$GPGGA,103000.959,5053.078,N,01136.835,E,1,12,1.0,0.0,M,0.0,M,,*6E
$GPGSA,A,3,01,02,03,04,05,06,07,08,09,10,11,12,1.0,1.0,1.0*30
$GPRMC,103000.959,A,5053.078,N,01136.835,E,038.9,309.4,190618,000.0,W*71
$GPGGA,103001.959,5053.087,N,01136.825,E,1,12,1.0,0.0,M,0.0,M,,*6E
$GPGSA,A,3,01,02,03,04,05,06,07,08,09,10,11,12,1.0,1.0,1.0*30
$GPRMC,103001.959,A,5053.087,N,01136.825,E,038.9,309.4,190618,000.0,W*71
$GPGGA,103002.959,5053.095,N,01136.815,E,1,12,1.0,0.0,M,0.0,M,,*6D
$GPGSA,A,3,01,02,03,04,05,06,07,08,09,10,11,12,1.0,1.0,1.0*30
$GPRMC,103002.959,A,5053.095,N,01136.815,E,038.9,309.4,190618,000.0,W*72
$GPGGA,103003.959,5053.104,N,01136.804,E,1,12,1.0,0.0,M,0.0,M,,*65
$GPGSA,A,3,01,02,03,04,05,06,07,08,09,10,11,12,1.0,1.0,1.0*30
$GPRMC,103003.959,A,5053.104,N,01136.804,E,038.9,309.4,190618,000.0,W*7A
$GPGGA,103004.959,5053.112,N,01136.794,E,1,12,1.0,0.0,M,0.0,M,,*63
$GPGSA,A,3,01,02,03,04,05,06,07,08,09,10,11,12,1.0,1.0,1.0*30
$GPRMC,103004.959,A,5053.112,N,01136.794,E,038.9,309.4,190618,000.0,W*7C
$GPGGA,103005.959,5053.121,N,01136.783,E,1,12,1.0,0.0,M,0.0,M,,*64
$GPGSA,A,3,01,02,03,04,05,06,07,08,09,10,11,12,1.0,1.0,1.0*30
$GPRMC,103005.959,A,5053.121,N,01136.783,E,038.9,309.4,190618,000.0,W*7B
$GPGGA,103006.959,5053.129,N,01136.773,E,1,12,1.0,0.0,M,0.0,M,,*60
$GPGSA,A,3,01,02,03,04,05,06,07,08,09,10,11,12,1.0,1.0,1.0*30
$GPRMC,103006.959,A,5053.129,N,01136.773,E,038.9,309.4,190618,000.0,W*7F
$GPGGA,103007.959,5053.138,N,01136.762,E,1,12,1.0,0.0,M,0.0,M,,*61
$GPGSA,A,3,01,02,03,04,05,06,07,08,09,10,11,12,1.0,1.0,1.0*30
$GPRMC,103007.959,A,5053.138,N,01136.762,E,038.9,309.4,190618,000.0,W*7E
$GPGGA,103008.959,5053.146,N,01136.752,E,1,12,1.0,0.0,M,0.0,M,,*64
$GPGSA,A,3,01,02,03,04,05,06,07,08,09,10,11,12,1.0,1.0,1.0*30
$GPRMC,103008.959,A,5053.146,N,01136.752,E,038.9,309.4,190618,000.0,W*7B
$GPGGA,103009.959,5053.155,N,01136.741,E,1,12,1.0,0.0,M,0.0,M,,*65
$GPGSA,A,3,01,02,03,04,05,06,07,08,09,10,11,12,1.0,1.0,1.0*30
$GPRMC,103009.959,A,5053.155,N,01136.741,E,038.9,309.4,190618,000.0,W*7A
$GPGGA,103010.959,5053.163,N,01136.731,E,1,12,1.0,0.0,M,0.0,M,,*6F
$GPGSA,A,3,01,02,03,04,05,06,07,08,09,10,11,12,1.0,1.0,1.0*30
$GPRMC,103010.959,A,5053.163,N,01136.731,E,038.9,309.4,190618,000.0,W*70
$GPGGA,103011.959,5053.172,N,01136.721,E,1,12,1.0,0.0,M,0.0,M,,*6F
$GPGSA,A,3,01,02,03,04,05,06,07,08,09,10,11,12,1.0,1.0,1.0*30
$GPRMC,103011.959,A,5053.172,N,01136.721,E,038.9,308.5,190618,000.0,W*70
$GPGGA,103012.959,5053.180,N,01136.710,E,1,12,1.0,0.0,M,0.0,M,,*63
$GPGSA,A,3,01,02,03,04,05,06,07,08,09,10,11,12,1.0,1.0,1.0*30
$GPRMC,103012.959,A,5053.180,N,01136.710,E,038.9,308.5,190618,000.0,W*7C
$GPGGA,103013.959,5053.189,N,01136.699,E,1,12,1.0,0.0,M,0.0,M,,*6B
$GPGSA,A,3,01,02,03,04,05,06,07,08,09,10,11,12,1.0,1.0,1.0*30
$GPRMC,103013.959,A,5053.189,N,01136.699,E,038.9,308.5,190618,000.0,W*74
$GPGGA,103014.959,5053.197,N,01136.689,E,1,12,1.0,0.0,M,0.0,M,,*62
$GPGSA,A,3,01,02,03,04,05,06,07,08,09,10,11,12,1.0,1.0,1.0*30
$GPRMC,103014.959,A,5053.197,N,01136.689,E,038.9,308.5,190618,000.0,W*7D
$GPGGA,103015.959,5053.206,N,01136.678,E,1,12,1.0,0.0,M,0.0,M,,*66
$GPGSA,A,3,01,02,03,04,05,06,07,08,09,10,11,12,1.0,1.0,1.0*30
$GPRMC,103015.959,A,5053.206,N,01136.678,E,038.9,308.5,190618,000.0,W*79
$GPGGA,103016.959,5053.214,N,01136.667,E,1,12,1.0,0.0,M,0.0,M,,*68
$GPGSA,A,3,01,02,03,04,05,06,07,08,09,10,11,12,1.0,1.0,1.0*30
$GPRMC,103016.959,A,5053.214,N,01136.667,E,038.9,308.5,190618,000.0,W*77
$GPGGA,103017.959,5053.223,N,01136.657,E,1,12,1.0,0.0,M,0.0,M,,*6E
$GPGSA,A,3,01,02,03,04,05,06,07,08,09,10,11,12,1.0,1.0,1.0*30
$GPRMC,103017.959,A,5053.223,N,01136.657,E,038.9,308.5,190618,000.0,W*71
$GPGGA,103018.959,5053.231,N,01136.646,E,1,12,1.0,0.0,M,0.0,M,,*62
$GPGSA,A,3,01,02,03,04,05,06,07,08,09,10,11,12,1.0,1.0,1.0*30
$GPRMC,103018.959,A,5053.231,N,01136.646,E,038.9,308.5,190618,000.0,W*7D
$GPGGA,103019.959,5053.240,N,01136.635,E,1,12,1.0,0.0,M,0.0,M,,*61
$GPGSA,A,3,01,02,03,04,05,06,07,08,09,10,11,12,1.0,1.0,1.0*30
$GPRMC,103019.959,A,5053.240,N,01136.635,E,038.9,308.5,190618,000.0,W*7E
$GPGGA,103020.959,5053.248,N,01136.625,E,1,12,1.0,0.0,M,0.0,M,,*62
$GPGSA,A,3,01,02,03,04,05,06,07,08,09,10,11,12,1.0,1.0,1.0*30
$GPRMC,103020.959,A,5053.248,N,01136.625,E,038.9,308.5,190618,000.0,W*7D
$GPGGA,103021.959,5053.256,N,01136.614,E,1,12,1.0,0.0,M,0.0,M,,*6E
$GPGSA,A,3,01,02,03,04,05,06,07,08,09,10,11,12,1.0,1.0,1.0*30
$GPRMC,103021.959,A,5053.256,N,01136.614,E,038.9,300.3,190618,000.0,W*7F
$GPGGA,103022.959,5053.264,N,01136.601,E,1,12,1.0,0.0,M,0.0,M,,*68
$GPGSA,A,3,01,02,03,04,05,06,07,08,09,10,11,12,1.0,1.0,1.0*30
$GPRMC,103022.959,A,5053.264,N,01136.601,E,038.9,300.3,190618,000.0,W*79
$GPGGA,103023.959,5053.271,N,01136.589,E,1,12,1.0,0.0,M,0.0,M,,*6E
$GPGSA,A,3,01,02,03,04,05,06,07,08,09,10,11,12,1.0,1.0,1.0*30
$GPRMC,103023.959,A,5053.271,N,01136.589,E,038.9,300.3,190618,000.0,W*7F
$GPGGA,103024.959,5053.278,N,01136.576,E,1,12,1.0,0.0,M,0.0,M,,*60
$GPGSA,A,3,01,02,03,04,05,06,07,08,09,10,11,12,1.0,1.0,1.0*30
$GPRMC,103024.959,A,5053.278,N,01136.576,E,038.9,300.3,190618,000.0,W*71
$GPGGA,103025.959,5053.286,N,01136.564,E,1,12,1.0,0.0,M,0.0,M,,*63
$GPGSA,A,3,01,02,03,04,05,06,07,08,09,10,11,12,1.0,1.0,1.0*30
$GPRMC,103025.959,A,5053.286,N,01136.564,E,038.9,300.3,190618,000.0,W*72
$GPGGA,103026.959,5053.293,N,01136.551,E,1,12,1.0,0.0,M,0.0,M,,*62
$GPGSA,A,3,01,02,03,04,05,06,07,08,09,10,11,12,1.0,1.0,1.0*30
$GPRMC,103026.959,A,5053.293,N,01136.551,E,038.9,300.3,190618,000.0,W*73
$GPGGA,103027.959,5053.300,N,01136.539,E,1,12,1.0,0.0,M,0.0,M,,*66
$GPGSA,A,3,01,02,03,04,05,06,07,08,09,10,11,12,1.0,1.0,1.0*30
$GPRMC,103027.959,A,5053.300,N,01136.539,E,038.9,300.3,190618,000.0,W*77
$GPGGA,103028.959,5053.308,N,01136.526,E,1,12,1.0,0.0,M,0.0,M,,*6F
$GPGSA,A,3,01,02,03,04,05,06,07,08,09,10,11,12,1.0,1.0,1.0*30
$GPRMC,103028.959,A,5053.308,N,01136.526,E,038.9,300.3,190618,000.0,W*7E
$GPGGA,103029.959,5053.315,N,01136.513,E,1,12,1.0,0.0,M,0.0,M,,*64
$GPGSA,A,3,01,02,03,04,05,06,07,08,09,10,11,12,1.0,1.0,1.0*30
$GPRMC,103029.959,A,5053.315,N,01136.513,E,038.9,300.3,190618,000.0,W*75
$GPGGA,103030.959,5053.322,N,01136.501,E,1,12,1.0,0.0,M,0.0,M,,*6B
$GPGSA,A,3,01,02,03,04,05,06,07,08,09,10,11,12,1.0,1.0,1.0*30
$GPRMC,103030.959,A,5053.322,N,01136.501,E,038.9,300.3,190618,000.0,W*7A
$GPGGA,103031.959,5053.330,N,01136.488,E,1,12,1.0,0.0,M,0.0,M,,*69
$GPGSA,A,3,01,02,03,04,05,06,07,08,09,10,11,12,1.0,1.0,1.0*30
$GPRMC,103031.959,A,5053.330,N,01136.488,E,038.9,300.3,190618,000.0,W*78
$GPGGA,103032.959,5053.337,N,01136.476,E,1,12,1.0,0.0,M,0.0,M,,*6C
$GPGSA,A,3,01,02,03,04,05,06,07,08,09,10,11,12,1.0,1.0,1.0*30
$GPRMC,103032.959,A,5053.337,N,01136.476,E,038.9,299.7,190618,000.0,W*78
$GPGGA,103033.959,5053.344,N,01136.463,E,1,12,1.0,0.0,M,0.0,M,,*6D
$GPGSA,A,3,01,02,03,04,05,06,07,08,09,10,11,12,1.0,1.0,1.0*30
$GPRMC,103033.959,A,5053.344,N,01136.463,E,038.9,299.7,190618,000.0,W*79
$GPGGA,103034.959,5053.351,N,01136.450,E,1,12,1.0,0.0,M,0.0,M,,*6E
$GPGSA,A,3,01,02,03,04,05,06,07,08,09,10,11,12,1.0,1.0,1.0*30
$GPRMC,103034.959,A,5053.351,N,01136.450,E,038.9,299.7,190618,000.0,W*7A
$GPGGA,103035.959,5053.359,N,01136.438,E,1,12,1.0,0.0,M,0.0,M,,*69
$GPGSA,A,3,01,02,03,04,05,06,07,08,09,10,11,12,1.0,1.0,1.0*30
$GPRMC,103035.959,A,5053.359,N,01136.438,E,038.9,299.7,190618,000.0,W*7D
$GPGGA,103036.959,5053.366,N,01136.425,E,1,12,1.0,0.0,M,0.0,M,,*6A
$GPGSA,A,3,01,02,03,04,05,06,07,08,09,10,11,12,1.0,1.0,1.0*30
$GPRMC,103036.959,A,5053.366,N,01136.425,E,038.9,299.7,190618,000.0,W*7E
$GPGGA,103037.959,5053.373,N,01136.412,E,1,12,1.0,0.0,M,0.0,M,,*6B
$GPGSA,A,3,01,02,03,04,05,06,07,08,09,10,11,12,1.0,1.0,1.0*30
$GPRMC,103037.959,A,5053.373,N,01136.412,E,038.9,299.7,190618,000.0,W*7F
$GPGGA,103038.959,5053.380,N,01136.399,E,1,12,1.0,0.0,M,0.0,M,,*6C
$GPGSA,A,3,01,02,03,04,05,06,07,08,09,10,11,12,1.0,1.0,1.0*30
$GPRMC,103038.959,A,5053.380,N,01136.399,E,038.9,299.7,190618,000.0,W*78
$GPGGA,103039.959,5053.387,N,01136.387,E,1,12,1.0,0.0,M,0.0,M,,*65
$GPGSA,A,3,01,02,03,04,05,06,07,08,09,10,11,12,1.0,1.0,1.0*30
$GPRMC,103039.959,A,5053.387,N,01136.387,E,038.9,299.7,190618,000.0,W*71
$GPGGA,103040.959,5053.395,N,01136.374,E,1,12,1.0,0.0,M,0.0,M,,*64
$GPGSA,A,3,01,02,03,04,05,06,07,08,09,10,11,12,1.0,1.0,1.0*30
$GPRMC,103040.959,A,5053.395,N,01136.374,E,038.9,299.7,190618,000.0,W*70
$GPGGA,103041.959,5053.402,N,01136.361,E,1,12,1.0,0.0,M,0.0,M,,*68
$GPGSA,A,3,01,02,03,04,05,06,07,08,09,10,11,12,1.0,1.0,1.0*30
$GPRMC,103041.959,A,5053.402,N,01136.361,E,038.9,299.7,190618,000.0,W*7C
$GPGGA,103042.959,5053.409,N,01136.348,E,1,12,1.0,0.0,M,0.0,M,,*6B
$GPGSA,A,3,01,02,03,04,05,06,07,08,09,10,11,12,1.0,1.0,1.0*30
$GPRMC,103042.959,A,5053.409,N,01136.348,E,038.9,299.7,190618,000.0,W*7F
$GPGGA,103043.959,5053.416,N,01136.336,E,1,12,1.0,0.0,M,0.0,M,,*6D
$GPGSA,A,3,01,02,03,04,05,06,07,08,09,10,11,12,1.0,1.0,1.0*30
$GPRMC,103043.959,A,5053.416,N,01136.336,E,038.9,299.7,190618,000.0,W*79
$GPGGA,103044.959,5053.424,N,01136.323,E,1,12,1.0,0.0,M,0.0,M,,*6F
$GPGSA,A,3,01,02,03,04,05,06,07,08,09,10,11,12,1.0,1.0,1.0*30
$GPRMC,103044.959,A,5053.424,N,01136.323,E,038.9,299.7,190618,000.0,W*7B
$GPGGA,103045.959,5053.431,N,01136.310,E,1,12,1.0,0.0,M,0.0,M,,*6A
$GPGSA,A,3,01,02,03,04,05,06,07,08,09,10,11,12,1.0,1.0,1.0*30
$GPRMC,103045.959,A,5053.431,N,01136.310,E,038.9,299.7,190618,000.0,W*7E
$GPGGA,103046.959,5053.438,N,01136.298,E,1,12,1.0,0.0,M,0.0,M,,*61
$GPGSA,A,3,01,02,03,04,05,06,07,08,09,10,11,12,1.0,1.0,1.0*30
$GPRMC,103046.959,A,5053.438,N,01136.298,E,038.9,301.0,190618,000.0,W*72
$GPGGA,103047.959,5053.445,N,01136.285,E,1,12,1.0,0.0,M,0.0,M,,*66
$GPGSA,A,3,01,02,03,04,05,06,07,08,09,10,11,12,1.0,1.0,1.0*30
$GPRMC,103047.959,A,5053.445,N,01136.285,E,038.9,301.0,190618,000.0,W*75
$GPGGA,103048.959,5053.453,N,01136.273,E,1,12,1.0,0.0,M,0.0,M,,*67
$GPGSA,A,3,01,02,03,04,05,06,07,08,09,10,11,12,1.0,1.0,1.0*30
$GPRMC,103048.959,A,5053.453,N,01136.273,E,038.9,301.0,190618,000.0,W*74
$GPGGA,103049.959,5053.460,N,01136.260,E,1,12,1.0,0.0,M,0.0,M,,*64
$GPGSA,A,3,01,02,03,04,05,06,07,08,09,10,11,12,1.0,1.0,1.0*30
$GPRMC,103049.959,A,5053.460,N,01136.260,E,038.9,301.0,190618,000.0,W*77
$GPGGA,103050.959,5053.468,N,01136.248,E,1,12,1.0,0.0,M,0.0,M,,*6E
$GPGSA,A,3,01,02,03,04,05,06,07,08,09,10,11,12,1.0,1.0,1.0*30
$GPRMC,103050.959,A,5053.468,N,01136.248,E,038.9,301.0,190618,000.0,W*7D
$GPGGA,103051.959,5053.475,N,01136.236,E,1,12,1.0,0.0,M,0.0,M,,*6A
$GPGSA,A,3,01,02,03,04,05,06,07,08,09,10,11,12,1.0,1.0,1.0*30
$GPRMC,103051.959,A,5053.475,N,01136.236,E,038.9,301.0,190618,000.0,W*79
$GPGGA,103052.959,5053.483,N,01136.223,E,1,12,1.0,0.0,M,0.0,M,,*64
$GPGSA,A,3,01,02,03,04,05,06,07,08,09,10,11,12,1.0,1.0,1.0*30
$GPRMC,103052.959,A,5053.483,N,01136.223,E,038.9,311.1,190618,000.0,W*77
$GPGGA,103053.959,5053.491,N,01136.213,E,1,12,1.0,0.0,M,0.0,M,,*65
$GPGSA,A,3,01,02,03,04,05,06,07,08,09,10,11,12,1.0,1.0,1.0*30
$GPRMC,103053.959,A,5053.491,N,01136.213,E,038.9,311.1,190618,000.0,W*76
$GPGGA,103054.959,5053.500,N,01136.203,E,1,12,1.0,0.0,M,0.0,M,,*6A
$GPGSA,A,3,01,02,03,04,05,06,07,08,09,10,11,12,1.0,1.0,1.0*30
$GPRMC,103054.959,A,5053.500,N,01136.203,E,038.9,311.1,190618,000.0,W*79
$GPGGA,103055.959,5053.509,N,01136.193,E,1,12,1.0,0.0,M,0.0,M,,*68
$GPGSA,A,3,01,02,03,04,05,06,07,08,09,10,11,12,1.0,1.0,1.0*30
$GPRMC,103055.959,A,5053.509,N,01136.193,E,038.9,311.1,190618,000.0,W*7B
$GPGGA,103056.959,5053.517,N,01136.183,E,1,12,1.0,0.0,M,0.0,M,,*65
$GPGSA,A,3,01,02,03,04,05,06,07,08,09,10,11,12,1.0,1.0,1.0*30
$GPRMC,103056.959,A,5053.517,N,01136.183,E,038.9,322.4,190618,000.0,W*73
$GPGGA,103057.959,5053.527,N,01136.175,E,1,12,1.0,0.0,M,0.0,M,,*6E
$GPGSA,A,3,01,02,03,04,05,06,07,08,09,10,11,12,1.0,1.0,1.0*30
$GPRMC,103057.959,A,5053.527,N,01136.175,E,038.9,322.4,190618,000.0,W*78
$GPGGA,103058.959,5053.537,N,01136.168,E,1,12,1.0,0.0,M,0.0,M,,*6C
$GPGSA,A,3,01,02,03,04,05,06,07,08,09,10,11,12,1.0,1.0,1.0*30
$GPRMC,103058.959,A,5053.537,N,01136.168,E,038.9,322.4,190618,000.0,W*7A
$GPGGA,103059.959,5053.547,N,01136.160,E,1,12,1.0,0.0,M,0.0,M,,*62
$GPGSA,A,3,01,02,03,04,05,06,07,08,09,10,11,12,1.0,1.0,1.0*30
$GPRMC,103059.959,A,5053.547,N,01136.160,E,038.9,322.4,190618,000.0,W*74
$GPGGA,103100.959,5053.556,N,01136.153,E,1,12,1.0,0.0,M,0.0,M,,*6F
$GPGSA,A,3,01,02,03,04,05,06,07,08,09,10,11,12,1.0,1.0,1.0*30
$GPRMC,103100.959,A,5053.556,N,01136.153,E,038.9,342.3,190618,000.0,W*78
$GPGGA,103101.959,5053.567,N,01136.150,E,1,12,1.0,0.0,M,0.0,M,,*6F
$GPGSA,A,3,01,02,03,04,05,06,07,08,09,10,11,12,1.0,1.0,1.0*30
$GPRMC,103101.959,A,5053.567,N,01136.150,E,038.9,342.3,190618,000.0,W*78
$GPGGA,103102.959,5053.577,N,01136.146,E,1,12,1.0,0.0,M,0.0,M,,*6A
$GPGSA,A,3,01,02,03,04,05,06,07,08,09,10,11,12,1.0,1.0,1.0*30
$GPRMC,103102.959,A,5053.577,N,01136.146,E,038.9,342.3,190618,000.0,W*7D
$GPGGA,103103.959,5053.588,N,01136.143,E,1,12,1.0,0.0,M,0.0,M,,*6E
$GPGSA,A,3,01,02,03,04,05,06,07,08,09,10,11,12,1.0,1.0,1.0*30
$GPRMC,103103.959,A,5053.588,N,01136.143,E,038.9,342.3,190618,000.0,W*79
$GPGGA,103104.959,5053.599,N,01136.139,E,1,12,1.0,0.0,M,0.0,M,,*64
$GPGSA,A,3,01,02,03,04,05,06,07,08,09,10,11,12,1.0,1.0,1.0*30
$GPRMC,103104.959,A,5053.599,N,01136.139,E,038.9,342.3,190618,000.0,W*73
$GPGGA,103105.959,5053.609,N,01136.136,E,1,12,1.0,0.0,M,0.0,M,,*60
$GPGSA,A,3,01,02,03,04,05,06,07,08,09,10,11,12,1.0,1.0,1.0*30
$GPRMC,103105.959,A,5053.609,N,01136.136,E,038.9,353.3,190618,000.0,W*77
$GPGGA,103106.959,5053.620,N,01136.135,E,1,12,1.0,0.0,M,0.0,M,,*6B
$GPGSA,A,3,01,02,03,04,05,06,07,08,09,10,11,12,1.0,1.0,1.0*30
$GPRMC,103106.959,A,5053.620,N,01136.135,E,038.9,353.3,190618,000.0,W*7C
$GPGGA,103107.959,5053.631,N,01136.133,E,1,12,1.0,0.0,M,0.0,M,,*6C
$GPGSA,A,3,01,02,03,04,05,06,07,08,09,10,11,12,1.0,1.0,1.0*30
$GPRMC,103107.959,A,5053.631,N,01136.133,E,038.9,353.3,190618,000.0,W*7B
$GPGGA,103108.959,5053.641,N,01136.132,E,1,12,1.0,0.0,M,0.0,M,,*65
$GPGSA,A,3,01,02,03,04,05,06,07,08,09,10,11,12,1.0,1.0,1.0*30
$GPRMC,103108.959,A,5053.641,N,01136.132,E,038.9,353.3,190618,000.0,W*72
$GPGGA,103109.959,5053.652,N,01136.131,E,1,12,1.0,0.0,M,0.0,M,,*65
$GPGSA,A,3,01,02,03,04,05,06,07,08,09,10,11,12,1.0,1.0,1.0*30
$GPRMC,103109.959,A,5053.652,N,01136.131,E,038.9,353.3,190618,000.0,W*72
$GPGGA,103110.959,5053.663,N,01136.130,E,1,12,1.0,0.0,M,0.0,M,,*6E
$GPGSA,A,3,01,02,03,04,05,06,07,08,09,10,11,12,1.0,1.0,1.0*30
$GPRMC,103110.959,A,5053.663,N,01136.130,E,038.9,353.3,190618,000.0,W*79
$GPGGA,103111.959,5053.674,N,01136.128,E,1,12,1.0,0.0,M,0.0,M,,*60
$GPGSA,A,3,01,02,03,04,05,06,07,08,09,10,11,12,1.0,1.0,1.0*30
$GPRMC,103111.959,A,5053.674,N,01136.128,E,038.9,353.3,190618,000.0,W*77
$GPGGA,103112.959,5053.684,N,01136.127,E,1,12,1.0,0.0,M,0.0,M,,*63
$GPGSA,A,3,01,02,03,04,05,06,07,08,09,10,11,12,1.0,1.0,1.0*30
$GPRMC,103112.959,A,5053.684,N,01136.127,E,038.9,353.3,190618,000.0,W*74
$GPGGA,103113.959,5053.695,N,01136.126,E,1,12,1.0,0.0,M,0.0,M,,*63
$GPGSA,A,3,01,02,03,04,05,06,07,08,09,10,11,12,1.0,1.0,1.0*30
$GPRMC,103113.959,A,5053.695,N,01136.126,E,038.9,353.3,190618,000.0,W*74
$GPGGA,103114.959,5053.706,N,01136.125,E,1,12,1.0,0.0,M,0.0,M,,*6C
$GPGSA,A,3,01,02,03,04,05,06,07,08,09,10,11,12,1.0,1.0,1.0*30
$GPRMC,103114.959,A,5053.706,N,01136.125,E,038.9,353.3,190618,000.0,W*7B
$GPGGA,103115.959,5053.717,N,01136.123,E,1,12,1.0,0.0,M,0.0,M,,*6B
$GPGSA,A,3,01,02,03,04,05,06,07,08,09,10,11,12,1.0,1.0,1.0*30
$GPRMC,103115.959,A,5053.717,N,01136.123,E,038.9,353.3,190618,000.0,W*7C
$GPGGA,103116.959,5053.728,N,01136.122,E,1,12,1.0,0.0,M,0.0,M,,*65
$GPGSA,A,3,01,02,03,04,05,06,07,08,09,10,11,12,1.0,1.0,1.0*30
$GPRMC,103116.959,A,5053.728,N,01136.122,E,038.9,353.3,190618,000.0,W*72
$GPGGA,103117.959,5053.738,N,01136.121,E,1,12,1.0,0.0,M,0.0,M,,*66
$GPGSA,A,3,01,02,03,04,05,06,07,08,09,10,11,12,1.0,1.0,1.0*30
$GPRMC,103117.959,A,5053.738,N,01136.121,E,038.9,353.3,190618,000.0,W*71
$GPGGA,103118.959,5053.749,N,01136.120,E,1,12,1.0,0.0,M,0.0,M,,*6E
$GPGSA,A,3,01,02,03,04,05,06,07,08,09,10,11,12,1.0,1.0,1.0*30
$GPRMC,103118.959,A,5053.749,N,01136.120,E,038.9,341.6,190618,000.0,W*7F
$GPGGA,103119.959,5053.760,N,01136.116,E,1,12,1.0,0.0,M,0.0,M,,*61
$GPGSA,A,3,01,02,03,04,05,06,07,08,09,10,11,12,1.0,1.0,1.0*30
$GPRMC,103119.959,A,5053.760,N,01136.116,E,038.9,341.6,190618,000.0,W*70
$GPGGA,103120.959,5053.770,N,01136.112,E,1,12,1.0,0.0,M,0.0,M,,*6E
$GPGSA,A,3,01,02,03,04,05,06,07,08,09,10,11,12,1.0,1.0,1.0*30
$GPRMC,103120.959,A,5053.770,N,01136.112,E,038.9,341.6,190618,000.0,W*7F
$GPGGA,103121.959,5053.781,N,01136.109,E,1,12,1.0,0.0,M,0.0,M,,*6B
$GPGSA,A,3,01,02,03,04,05,06,07,08,09,10,11,12,1.0,1.0,1.0*30
$GPRMC,103121.959,A,5053.781,N,01136.109,E,038.9,341.6,190618,000.0,W*7A
$GPGGA,103122.959,5053.791,N,01136.105,E,1,12,1.0,0.0,M,0.0,M,,*65
$GPGSA,A,3,01,02,03,04,05,06,07,08,09,10,11,12,1.0,1.0,1.0*30
$GPRMC,103122.959,A,5053.791,N,01136.105,E,038.9,341.6,190618,000.0,W*74
$GPGGA,103123.959,5053.802,N,01136.102,E,1,12,1.0,0.0,M,0.0,M,,*66
$GPGSA,A,3,01,02,03,04,05,06,07,08,09,10,11,12,1.0,1.0,1.0*30
$GPRMC,103123.959,A,5053.802,N,01136.102,E,038.9,335.9,190618,000.0,W*7B
$GPGGA,103124.959,5053.812,N,01136.097,E,1,12,1.0,0.0,M,0.0,M,,*6D
$GPGSA,A,3,01,02,03,04,05,06,07,08,09,10,11,12,1.0,1.0,1.0*30
$GPRMC,103124.959,A,5053.812,N,01136.097,E,038.9,335.9,190618,000.0,W*70
$GPGGA,103125.959,5053.823,N,01136.093,E,1,12,1.0,0.0,M,0.0,M,,*6A
$GPGSA,A,3,01,02,03,04,05,06,07,08,09,10,11,12,1.0,1.0,1.0*30
$GPRMC,103125.959,A,5053.823,N,01136.093,E,038.9,335.9,190618,000.0,W*77
$GPGGA,103126.959,5053.833,N,01136.088,E,1,12,1.0,0.0,M,0.0,M,,*62
$GPGSA,A,3,01,02,03,04,05,06,07,08,09,10,11,12,1.0,1.0,1.0*30
$GPRMC,103126.959,A,5053.833,N,01136.088,E,038.9,335.9,190618,000.0,W*7F
$GPGGA,103127.959,5053.843,N,01136.083,E,1,12,1.0,0.0,M,0.0,M,,*6F
$GPGSA,A,3,01,02,03,04,05,06,07,08,09,10,11,12,1.0,1.0,1.0*30
$GPRMC,103127.959,A,5053.843,N,01136.083,E,038.9,335.9,190618,000.0,W*72
$GPGGA,103128.959,5053.854,N,01136.079,E,1,12,1.0,0.0,M,0.0,M,,*63
$GPGSA,A,3,01,02,03,04,05,06,07,08,09,10,11,12,1.0,1.0,1.0*30
$GPRMC,103128.959,A,5053.854,N,01136.079,E,038.9,335.9,190618,000.0,W*7E
$GPGGA,103129.959,5053.864,N,01136.074,E,1,12,1.0,0.0,M,0.0,M,,*6C
$GPGSA,A,3,01,02,03,04,05,06,07,08,09,10,11,12,1.0,1.0,1.0*30
$GPRMC,103129.959,A,5053.864,N,01136.074,E,038.9,335.9,190618,000.0,W*71
$GPGGA,103130.959,5053.875,N,01136.069,E,1,12,1.0,0.0,M,0.0,M,,*68
$GPGSA,A,3,01,02,03,04,05,06,07,08,09,10,11,12,1.0,1.0,1.0*30
$GPRMC,103130.959,A,5053.875,N,01136.069,E,038.9,335.9,190618,000.0,W*75
$GPGGA,103131.959,5053.885,N,01136.064,E,1,12,1.0,0.0,M,0.0,M,,*6B
$GPGSA,A,3,01,02,03,04,05,06,07,08,09,10,11,12,1.0,1.0,1.0*30
$GPRMC,103131.959,A,5053.885,N,01136.064,E,038.9,335.9,190618,000.0,W*76
$GPGGA,103132.959,5053.895,N,01136.060,E,1,12,1.0,0.0,M,0.0,M,,*6D
$GPGSA,A,3,01,02,03,04,05,06,07,08,09,10,11,12,1.0,1.0,1.0*30
$GPRMC,103132.959,A,5053.895,N,01136.060,E,038.9,332.5,190618,000.0,W*7B
$GPGGA,103133.959,5053.906,N,01136.054,E,1,12,1.0,0.0,M,0.0,M,,*60
$GPGSA,A,3,01,02,03,04,05,06,07,08,09,10,11,12,1.0,1.0,1.0*30
$GPRMC,103133.959,A,5053.906,N,01136.054,E,038.9,332.5,190618,000.0,W*76
$GPGGA,103134.959,5053.916,N,01136.049,E,1,12,1.0,0.0,M,0.0,M,,*6A
$GPGSA,A,3,01,02,03,04,05,06,07,08,09,10,11,12,1.0,1.0,1.0*30
$GPRMC,103134.959,A,5053.916,N,01136.049,E,038.9,332.5,190618,000.0,W*7C
$GPGGA,103135.959,5053.926,N,01136.044,E,1,12,1.0,0.0,M,0.0,M,,*65
$GPGSA,A,3,01,02,03,04,05,06,07,08,09,10,11,12,1.0,1.0,1.0*30
$GPRMC,103135.959,A,5053.926,N,01136.044,E,038.9,332.5,190618,000.0,W*73
$GPGGA,103136.959,5053.936,N,01136.038,E,1,12,1.0,0.0,M,0.0,M,,*6C
$GPGSA,A,3,01,02,03,04,05,06,07,08,09,10,11,12,1.0,1.0,1.0*30
$GPRMC,103136.959,A,5053.936,N,01136.038,E,038.9,332.5,190618,000.0,W*7A
$GPGGA,103137.959,5053.947,N,01136.033,E,1,12,1.0,0.0,M,0.0,M,,*60
$GPGSA,A,3,01,02,03,04,05,06,07,08,09,10,11,12,1.0,1.0,1.0*30
$GPRMC,103137.959,A,5053.947,N,01136.033,E,038.9,332.5,190618,000.0,W*76
$GPGGA,103138.959,5053.957,N,01136.028,E,1,12,1.0,0.0,M,0.0,M,,*64
$GPGSA,A,3,01,02,03,04,05,06,07,08,09,10,11,12,1.0,1.0,1.0*30
$GPRMC,103138.959,A,5053.957,N,01136.028,E,038.9,332.5,190618,000.0,W*72
$GPGGA,103139.959,5053.967,N,01136.022,E,1,12,1.0,0.0,M,0.0,M,,*6C
$GPGSA,A,3,01,02,03,04,05,06,07,08,09,10,11,12,1.0,1.0,1.0*30
$GPRMC,103139.959,A,5053.967,N,01136.022,E,038.9,332.5,190618,000.0,W*7A
$GPGGA,103140.959,5053.977,N,01136.017,E,1,12,1.0,0.0,M,0.0,M,,*65
$GPGSA,A,3,01,02,03,04,05,06,07,08,09,10,11,12,1.0,1.0,1.0*30
$GPRMC,103140.959,A,5053.977,N,01136.017,E,038.9,332.5,190618,000.0,W*73
$GPGGA,103141.959,5053.988,N,01136.012,E,1,12,1.0,0.0,M,0.0,M,,*61
$GPGSA,A,3,01,02,03,04,05,06,07,08,09,10,11,12,1.0,1.0,1.0*30
$GPRMC,103141.959,A,5053.988,N,01136.012,E,038.9,332.5,190618,000.0,W*77
$GPGGA,103142.959,5053.998,N,01136.006,E,1,12,1.0,0.0,M,0.0,M,,*66
$GPGSA,A,3,01,02,03,04,05,06,07,08,09,10,11,12,1.0,1.0,1.0*30
$GPRMC,103142.959,A,5053.998,N,01136.006,E,038.9,332.5,190618,000.0,W*70
$GPGGA,103143.959,5054.008,N,01136.001,E,1,12,1.0,0.0,M,0.0,M,,*67
$GPGSA,A,3,01,02,03,04,05,06,07,08,09,10,11,12,1.0,1.0,1.0*30
$GPRMC,103143.959,A,5054.008,N,01136.001,E,038.9,326.9,190618,000.0,W*78
$GPGGA,103144.959,5054.018,N,01135.994,E,1,12,1.0,0.0,M,0.0,M,,*67
$GPGSA,A,3,01,02,03,04,05,06,07,08,09,10,11,12,1.0,1.0,1.0*30
$GPRMC,103144.959,A,5054.018,N,01135.994,E,038.9,326.9,190618,000.0,W*78
$GPGGA,103145.959,5054.028,N,01135.988,E,1,12,1.0,0.0,M,0.0,M,,*68
$GPGSA,A,3,01,02,03,04,05,06,07,08,09,10,11,12,1.0,1.0,1.0*30
$GPRMC,103145.959,A,5054.028,N,01135.988,E,038.9,326.9,190618,000.0,W*77
$GPGGA,103146.959,5054.038,N,01135.981,E,1,12,1.0,0.0,M,0.0,M,,*63
$GPGSA,A,3,01,02,03,04,05,06,07,08,09,10,11,12,1.0,1.0,1.0*30
$GPRMC,103146.959,A,5054.038,N,01135.981,E,038.9,326.9,190618,000.0,W*7C
$GPGGA,103147.959,5054.048,N,01135.975,E,1,12,1.0,0.0,M,0.0,M,,*6E
$GPGSA,A,3,01,02,03,04,05,06,07,08,09,10,11,12,1.0,1.0,1.0*30
$GPRMC,103147.959,A,5054.048,N,01135.975,E,038.9,326.9,190618,000.0,W*71
$GPGGA,103148.959,5054.058,N,01135.968,E,1,12,1.0,0.0,M,0.0,M,,*6C
$GPGSA,A,3,01,02,03,04,05,06,07,08,09,10,11,12,1.0,1.0,1.0*30
$GPRMC,103148.959,A,5054.058,N,01135.968,E,038.9,326.9,190618,000.0,W*73
$GPGGA,103149.959,5054.068,N,01135.962,E,1,12,1.0,0.0,M,0.0,M,,*64
$GPGSA,A,3,01,02,03,04,05,06,07,08,09,10,11,12,1.0,1.0,1.0*30
$GPRMC,103149.959,A,5054.068,N,01135.962,E,038.9,315.7,190618,000.0,W*75
$GPGGA,103150.959,5054.077,N,01135.953,E,1,12,1.0,0.0,M,0.0,M,,*60
$GPGSA,A,3,01,02,03,04,05,06,07,08,09,10,11,12,1.0,1.0,1.0*30
$GPRMC,103150.959,A,5054.077,N,01135.953,E,038.9,315.7,190618,000.0,W*71
$GPGGA,103151.959,5054.086,N,01135.944,E,1,12,1.0,0.0,M,0.0,M,,*69
$GPGSA,A,3,01,02,03,04,05,06,07,08,09,10,11,12,1.0,1.0,1.0*30
$GPRMC,103151.959,A,5054.086,N,01135.944,E,038.9,315.7,190618,000.0,W*78
$GPGGA,103152.959,5054.095,N,01135.935,E,1,12,1.0,0.0,M,0.0,M,,*6E
$GPGSA,A,3,01,02,03,04,05,06,07,08,09,10,11,12,1.0,1.0,1.0*30
$GPRMC,103152.959,A,5054.095,N,01135.935,E,038.9,315.7,190618,000.0,W*7F
$GPGGA,103153.959,5054.105,N,01135.926,E,1,12,1.0,0.0,M,0.0,M,,*65
$GPGSA,A,3,01,02,03,04,05,06,07,08,09,10,11,12,1.0,1.0,1.0*30
$GPRMC,103153.959,A,5054.105,N,01135.926,E,038.9,315.7,190618,000.0,W*74
$GPGGA,103154.959,5054.114,N,01135.917,E,1,12,1.0,0.0,M,0.0,M,,*60
$GPGSA,A,3,01,02,03,04,05,06,07,08,09,10,11,12,1.0,1.0,1.0*30
$GPRMC,103154.959,A,5054.114,N,01135.917,E,038.9,315.7,190618,000.0,W*71
$GPGGA,103155.959,5054.123,N,01135.908,E,1,12,1.0,0.0,M,0.0,M,,*6B
$GPGSA,A,3,01,02,03,04,05,06,07,08,09,10,11,12,1.0,1.0,1.0*30
$GPRMC,103155.959,A,5054.123,N,01135.908,E,038.9,304.2,190618,000.0,W*7F
$GPGGA,103156.959,5054.131,N,01135.896,E,1,12,1.0,0.0,M,0.0,M,,*6D
$GPGSA,A,3,01,02,03,04,05,06,07,08,09,10,11,12,1.0,1.0,1.0*30
$GPRMC,103156.959,A,5054.131,N,01135.896,E,038.9,304.2,190618,000.0,W*79
$GPGGA,103157.959,5054.139,N,01135.884,E,1,12,1.0,0.0,M,0.0,M,,*67
$GPGSA,A,3,01,02,03,04,05,06,07,08,09,10,11,12,1.0,1.0,1.0*30
$GPRMC,103157.959,A,5054.139,N,01135.884,E,038.9,304.2,190618,000.0,W*73
$GPGGA,103158.959,5054.147,N,01135.873,E,1,12,1.0,0.0,M,0.0,M,,*69
$GPGSA,A,3,01,02,03,04,05,06,07,08,09,10,11,12,1.0,1.0,1.0*30
$GPRMC,103158.959,A,5054.147,N,01135.873,E,038.9,304.2,190618,000.0,W*7D
$GPGGA,103159.959,5054.155,N,01135.861,E,1,12,1.0,0.0,M,0.0,M,,*68
$GPGSA,A,3,01,02,03,04,05,06,07,08,09,10,11,12,1.0,1.0,1.0*30
$GPRMC,103159.959,A,5054.155,N,01135.861,E,038.9,304.2,190618,000.0,W*7C
$GPGGA,103200.959,5054.162,N,01135.849,E,1,12,1.0,0.0,M,0.0,M,,*69
$GPGSA,A,3,01,02,03,04,05,06,07,08,09,10,11,12,1.0,1.0,1.0*30
$GPRMC,103200.959,A,5054.162,N,01135.849,E,038.9,304.2,190618,000.0,W*7D
$GPGGA,103201.959,5054.170,N,01135.838,E,1,12,1.0,0.0,M,0.0,M,,*6D
$GPGSA,A,3,01,02,03,04,05,06,07,08,09,10,11,12,1.0,1.0,1.0*30
$GPRMC,103201.959,A,5054.170,N,01135.838,E,038.9,304.2,190618,000.0,W*79
$GPGGA,103202.959,5054.178,N,01135.826,E,1,12,1.0,0.0,M,0.0,M,,*69
$GPGSA,A,3,01,02,03,04,05,06,07,08,09,10,11,12,1.0,1.0,1.0*30
$GPRMC,103202.959,A,5054.178,N,01135.826,E,038.9,294.7,190618,000.0,W*70
$GPGGA,103203.959,5054.185,N,01135.812,E,1,12,1.0,0.0,M,0.0,M,,*6D
$GPGSA,A,3,01,02,03,04,05,06,07,08,09,10,11,12,1.0,1.0,1.0*30
$GPRMC,103203.959,A,5054.185,N,01135.812,E,038.9,294.7,190618,000.0,W*74
$GPGGA,103204.959,5054.191,N,01135.798,E,1,12,1.0,0.0,M,0.0,M,,*62
$GPGSA,A,3,01,02,03,04,05,06,07,08,09,10,11,12,1.0,1.0,1.0*30
$GPRMC,103204.959,A,5054.191,N,01135.798,E,038.9,294.7,190618,000.0,W*7B
$GPGGA,103205.959,5054.197,N,01135.785,E,1,12,1.0,0.0,M,0.0,M,,*69
$GPGSA,A,3,01,02,03,04,05,06,07,08,09,10,11,12,1.0,1.0,1.0*30
$GPRMC,103205.959,A,5054.197,N,01135.785,E,038.9,294.7,190618,000.0,W*70
$GPGGA,103206.959,5054.204,N,01135.771,E,1,12,1.0,0.0,M,0.0,M,,*68
$GPGSA,A,3,01,02,03,04,05,06,07,08,09,10,11,12,1.0,1.0,1.0*30
$GPRMC,103206.959,A,5054.204,N,01135.771,E,038.9,294.7,190618,000.0,W*71
$GPGGA,103207.959,5054.210,N,01135.757,E,1,12,1.0,0.0,M,0.0,M,,*68
$GPGSA,A,3,01,02,03,04,05,06,07,08,09,10,11,12,1.0,1.0,1.0*30
$GPRMC,103207.959,A,5054.210,N,01135.757,E,038.9,294.7,190618,000.0,W*71
$GPGGA,103208.959,5054.216,N,01135.743,E,1,12,1.0,0.0,M,0.0,M,,*64
$GPGSA,A,3,01,02,03,04,05,06,07,08,09,10,11,12,1.0,1.0,1.0*30
$GPRMC,103208.959,A,5054.216,N,01135.743,E,038.9,290.9,190618,000.0,W*77
$GPGGA,103209.959,5054.222,N,01135.728,E,1,12,1.0,0.0,M,0.0,M,,*6F
$GPGSA,A,3,01,02,03,04,05,06,07,08,09,10,11,12,1.0,1.0,1.0*30
$GPRMC,103209.959,A,5054.222,N,01135.728,E,038.9,290.9,190618,000.0,W*7C
$GPGGA,103210.959,5054.227,N,01135.714,E,1,12,1.0,0.0,M,0.0,M,,*6D
$GPGSA,A,3,01,02,03,04,05,06,07,08,09,10,11,12,1.0,1.0,1.0*30
$GPRMC,103210.959,A,5054.227,N,01135.714,E,038.9,290.9,190618,000.0,W*7E
$GPGGA,103211.959,5054.233,N,01135.699,E,1,12,1.0,0.0,M,0.0,M,,*6D
$GPGSA,A,3,01,02,03,04,05,06,07,08,09,10,11,12,1.0,1.0,1.0*30
$GPRMC,103211.959,A,5054.233,N,01135.699,E,038.9,290.9,190618,000.0,W*7E
$GPGGA,103212.959,5054.239,N,01135.684,E,1,12,1.0,0.0,M,0.0,M,,*68
$GPGSA,A,3,01,02,03,04,05,06,07,08,09,10,11,12,1.0,1.0,1.0*30
$GPRMC,103212.959,A,5054.239,N,01135.684,E,038.9,290.9,190618,000.0,W*7B
$GPGGA,103213.959,5054.244,N,01135.670,E,1,12,1.0,0.0,M,0.0,M,,*68
$GPGSA,A,3,01,02,03,04,05,06,07,08,09,10,11,12,1.0,1.0,1.0*30
$GPRMC,103213.959,A,5054.244,N,01135.670,E,038.9,290.9,190618,000.0,W*7B
$GPGGA,103214.959,5054.250,N,01135.655,E,1,12,1.0,0.0,M,0.0,M,,*6D
$GPGSA,A,3,01,02,03,04,05,06,07,08,09,10,11,12,1.0,1.0,1.0*30
$GPRMC,103214.959,A,5054.250,N,01135.655,E,038.9,290.9,190618,000.0,W*7E
$GPGGA,103215.959,5054.255,N,01135.640,E,1,12,1.0,0.0,M,0.0,M,,*6D
$GPGSA,A,3,01,02,03,04,05,06,07,08,09,10,11,12,1.0,1.0,1.0*30
$GPRMC,103215.959,A,5054.255,N,01135.640,E,038.9,290.9,190618,000.0,W*7E
$GPGGA,103216.959,5054.261,N,01135.626,E,1,12,1.0,0.0,M,0.0,M,,*69
$GPGSA,A,3,01,02,03,04,05,06,07,08,09,10,11,12,1.0,1.0,1.0*30
$GPRMC,103216.959,A,5054.261,N,01135.626,E,038.9,290.9,190618,000.0,W*7A
$GPGGA,103217.959,5054.267,N,01135.611,E,1,12,1.0,0.0,M,0.0,M,,*6A
$GPGSA,A,3,01,02,03,04,05,06,07,08,09,10,11,12,1.0,1.0,1.0*30
$GPRMC,103217.959,A,5054.267,N,01135.611,E,038.9,290.9,190618,000.0,W*79
$GPGGA,103218.959,5054.272,N,01135.597,E,1,12,1.0,0.0,M,0.0,M,,*6C
$GPGSA,A,3,01,02,03,04,05,06,07,08,09,10,11,12,1.0,1.0,1.0*30
$GPRMC,103218.959,A,5054.272,N,01135.597,E,038.9,290.9,190618,000.0,W*7F
$GPGGA,103219.959,5054.278,N,01135.582,E,1,12,1.0,0.0,M,0.0,M,,*63
$GPGSA,A,3,01,02,03,04,05,06,07,08,09,10,11,12,1.0,1.0,1.0*30
$GPRMC,103219.959,A,5054.278,N,01135.582,E,038.9,290.9,190618,000.0,W*70
$GPGGA,103220.959,5054.283,N,01135.567,E,1,12,1.0,0.0,M,0.0,M,,*66
$GPGSA,A,3,01,02,03,04,05,06,07,08,09,10,11,12,1.0,1.0,1.0*30
$GPRMC,103220.959,A,5054.283,N,01135.567,E,038.9,290.9,190618,000.0,W*75
$GPGGA,103221.959,5054.289,N,01135.553,E,1,12,1.0,0.0,M,0.0,M,,*6A
$GPGSA,A,3,01,02,03,04,05,06,07,08,09,10,11,12,1.0,1.0,1.0*30
$GPRMC,103221.959,A,5054.289,N,01135.553,E,038.9,290.9,190618,000.0,W*79
$GPGGA,103222.959,5054.294,N,01135.538,E,1,12,1.0,0.0,M,0.0,M,,*68
$GPGSA,A,3,01,02,03,04,05,06,07,08,09,10,11,12,1.0,1.0,1.0*30
$GPRMC,103222.959,A,5054.294,N,01135.538,E,038.9,290.9,190618,000.0,W*7B
$GPGGA,103223.959,5054.300,N,01135.523,E,1,12,1.0,0.0,M,0.0,M,,*6F
$GPGSA,A,3,01,02,03,04,05,06,07,08,09,10,11,12,1.0,1.0,1.0*30
$GPRMC,103223.959,A,5054.300,N,01135.523,E,038.9,290.9,190618,000.0,W*7C
$GPGGA,103224.959,5054.306,N,01135.509,E,1,12,1.0,0.0,M,0.0,M,,*66
$GPGSA,A,3,01,02,03,04,05,06,07,08,09,10,11,12,1.0,1.0,1.0*30
$GPRMC,103224.959,A,5054.306,N,01135.509,E,038.9,290.9,190618,000.0,W*75
$GPGGA,103225.959,5054.311,N,01135.494,E,1,12,1.0,0.0,M,0.0,M,,*64
$GPGSA,A,3,01,02,03,04,05,06,07,08,09,10,11,12,1.0,1.0,1.0*30
$GPRMC,103225.959,A,5054.311,N,01135.494,E,038.9,290.9,190618,000.0,W*77
$GPGGA,103226.959,5054.317,N,01135.479,E,1,12,1.0,0.0,M,0.0,M,,*62
$GPGSA,A,3,01,02,03,04,05,06,07,08,09,10,11,12,1.0,1.0,1.0*30
$GPRMC,103226.959,A,5054.317,N,01135.479,E,038.9,290.9,190618,000.0,W*71
$GPGGA,103227.959,5054.322,N,01135.465,E,1,12,1.0,0.0,M,0.0,M,,*68
$GPGSA,A,3,01,02,03,04,05,06,07,08,09,10,11,12,1.0,1.0,1.0*30
$GPRMC,103227.959,A,5054.322,N,01135.465,E,038.9,290.9,190618,000.0,W*7B
$GPGGA,103228.959,5054.328,N,01135.450,E,1,12,1.0,0.0,M,0.0,M,,*6B
$GPGSA,A,3,01,02,03,04,05,06,07,08,09,10,11,12,1.0,1.0,1.0*30
$GPRMC,103228.959,A,5054.328,N,01135.450,E,038.9,298.6,190618,000.0,W*7F
$GPGGA,103229.959,5054.335,N,01135.437,E,1,12,1.0,0.0,M,0.0,M,,*67
$GPGSA,A,3,01,02,03,04,05,06,07,08,09,10,11,12,1.0,1.0,1.0*30
$GPRMC,103229.959,A,5054.335,N,01135.437,E,038.9,298.6,190618,000.0,W*73
$GPGGA,103230.959,5054.342,N,01135.424,E,1,12,1.0,0.0,M,0.0,M,,*6D
$GPGSA,A,3,01,02,03,04,05,06,07,08,09,10,11,12,1.0,1.0,1.0*30
$GPRMC,103230.959,A,5054.342,N,01135.424,E,038.9,298.6,190618,000.0,W*79
$GPGGA,103231.959,5054.349,N,01135.411,E,1,12,1.0,0.0,M,0.0,M,,*61
$GPGSA,A,3,01,02,03,04,05,06,07,08,09,10,11,12,1.0,1.0,1.0*30
$GPRMC,103231.959,A,5054.349,N,01135.411,E,038.9,298.6,190618,000.0,W*75
$GPGGA,103232.959,5054.356,N,01135.398,E,1,12,1.0,0.0,M,0.0,M,,*6A
$GPGSA,A,3,01,02,03,04,05,06,07,08,09,10,11,12,1.0,1.0,1.0*30
$GPRMC,103232.959,A,5054.356,N,01135.398,E,038.9,298.6,190618,000.0,W*7E
$GPGGA,103233.959,5054.363,N,01135.385,E,1,12,1.0,0.0,M,0.0,M,,*61
$GPGSA,A,3,01,02,03,04,05,06,07,08,09,10,11,12,1.0,1.0,1.0*30
$GPRMC,103233.959,A,5054.363,N,01135.385,E,038.9,298.6,190618,000.0,W*75
$GPGGA,103234.959,5054.370,N,01135.372,E,1,12,1.0,0.0,M,0.0,M,,*6C
$GPGSA,A,3,01,02,03,04,05,06,07,08,09,10,11,12,1.0,1.0,1.0*30
$GPRMC,103234.959,A,5054.370,N,01135.372,E,038.9,304.2,190618,000.0,W*78
$GPGGA,103235.959,5054.378,N,01135.361,E,1,12,1.0,0.0,M,0.0,M,,*67
$GPGSA,A,3,01,02,03,04,05,06,07,08,09,10,11,12,1.0,1.0,1.0*30
$GPRMC,103235.959,A,5054.378,N,01135.361,E,038.9,304.2,190618,000.0,W*73
$GPGGA,103236.959,5054.386,N,01135.349,E,1,12,1.0,0.0,M,0.0,M,,*6F
$GPGSA,A,3,01,02,03,04,05,06,07,08,09,10,11,12,1.0,1.0,1.0*30
$GPRMC,103236.959,A,5054.386,N,01135.349,E,038.9,304.2,190618,000.0,W*7B
$GPGGA,103237.959,5054.394,N,01135.337,E,1,12,1.0,0.0,M,0.0,M,,*64
$GPGSA,A,3,01,02,03,04,05,06,07,08,09,10,11,12,1.0,1.0,1.0*30
$GPRMC,103237.959,A,5054.394,N,01135.337,E,038.9,304.2,190618,000.0,W*70
$GPGGA,103238.959,5054.402,N,01135.325,E,1,12,1.0,0.0,M,0.0,M,,*60
$GPGSA,A,3,01,02,03,04,05,06,07,08,09,10,11,12,1.0,1.0,1.0*30
$GPRMC,103238.959,A,5054.402,N,01135.325,E,038.9,304.2,190618,000.0,W*74
$GPGGA,103239.959,5054.410,N,01135.314,E,1,12,1.0,0.0,M,0.0,M,,*60
$GPGSA,A,3,01,02,03,04,05,06,07,08,09,10,11,12,1.0,1.0,1.0*30
$GPRMC,103239.959,A,5054.410,N,01135.314,E,038.9,312.6,190618,000.0,W*77
$GPGGA,103240.959,5054.418,N,01135.304,E,1,12,1.0,0.0,M,0.0,M,,*67
$GPGSA,A,3,01,02,03,04,05,06,07,08,09,10,11,12,1.0,1.0,1.0*30
$GPRMC,103240.959,A,5054.418,N,01135.304,E,038.9,312.6,190618,000.0,W*70
$GPGGA,103241.959,5054.427,N,01135.294,E,1,12,1.0,0.0,M,0.0,M,,*62
$GPGSA,A,3,01,02,03,04,05,06,07,08,09,10,11,12,1.0,1.0,1.0*30
$GPRMC,103241.959,A,5054.427,N,01135.294,E,038.9,312.6,190618,000.0,W*75
$GPGGA,103242.959,5054.436,N,01135.285,E,1,12,1.0,0.0,M,0.0,M,,*61
$GPGSA,A,3,01,02,03,04,05,06,07,08,09,10,11,12,1.0,1.0,1.0*30
$GPRMC,103242.959,A,5054.436,N,01135.285,E,038.9,312.6,190618,000.0,W*76
$GPGGA,103243.959,5054.445,N,01135.275,E,1,12,1.0,0.0,M,0.0,M,,*6B
$GPGSA,A,3,01,02,03,04,05,06,07,08,09,10,11,12,1.0,1.0,1.0*30
$GPRMC,103243.959,A,5054.445,N,01135.275,E,038.9,312.6,190618,000.0,W*7C
$GPGGA,103244.959,5054.454,N,01135.265,E,1,12,1.0,0.0,M,0.0,M,,*6D
$GPGSA,A,3,01,02,03,04,05,06,07,08,09,10,11,12,1.0,1.0,1.0*30
$GPRMC,103244.959,A,5054.454,N,01135.265,E,038.9,321.6,190618,000.0,W*7A
$GPGGA,103245.959,5054.464,N,01135.258,E,1,12,1.0,0.0,M,0.0,M,,*61
$GPGSA,A,3,01,02,03,04,05,06,07,08,09,10,11,12,1.0,1.0,1.0*30
$GPRMC,103245.959,A,5054.464,N,01135.258,E,038.9,321.6,190618,000.0,W*76
$GPGGA,103246.959,5054.473,N,01135.250,E,1,12,1.0,0.0,M,0.0,M,,*6C
$GPGSA,A,3,01,02,03,04,05,06,07,08,09,10,11,12,1.0,1.0,1.0*30
$GPRMC,103246.959,A,5054.473,N,01135.250,E,038.9,321.6,190618,000.0,W*7B
$GPGGA,103247.959,5054.483,N,01135.242,E,1,12,1.0,0.0,M,0.0,M,,*61
$GPGSA,A,3,01,02,03,04,05,06,07,08,09,10,11,12,1.0,1.0,1.0*30
$GPRMC,103247.959,A,5054.483,N,01135.242,E,038.9,321.6,190618,000.0,W*76
$GPGGA,103248.959,5054.493,N,01135.235,E,1,12,1.0,0.0,M,0.0,M,,*6F
$GPGSA,A,3,01,02,03,04,05,06,07,08,09,10,11,12,1.0,1.0,1.0*30
$GPRMC,103248.959,A,5054.493,N,01135.235,E,038.9,321.6,190618,000.0,W*78
$GPGGA,103249.959,5054.502,N,01135.227,E,1,12,1.0,0.0,M,0.0,M,,*64
$GPGSA,A,3,01,02,03,04,05,06,07,08,09,10,11,12,1.0,1.0,1.0*30
$GPRMC,103249.959,A,5054.502,N,01135.227,E,038.9,327.5,190618,000.0,W*76
$GPGGA,103250.959,5054.512,N,01135.221,E,1,12,1.0,0.0,M,0.0,M,,*6B
$GPGSA,A,3,01,02,03,04,05,06,07,08,09,10,11,12,1.0,1.0,1.0*30
$GPRMC,103250.959,A,5054.512,N,01135.221,E,038.9,327.5,190618,000.0,W*79
$GPGGA,103251.959,5054.522,N,01135.214,E,1,12,1.0,0.0,M,0.0,M,,*6F
$GPGSA,A,3,01,02,03,04,05,06,07,08,09,10,11,12,1.0,1.0,1.0*30
$GPRMC,103251.959,A,5054.522,N,01135.214,E,038.9,327.5,190618,000.0,W*7D
$GPGGA,103252.959,5054.532,N,01135.208,E,1,12,1.0,0.0,M,0.0,M,,*60
$GPGSA,A,3,01,02,03,04,05,06,07,08,09,10,11,12,1.0,1.0,1.0*30
$GPRMC,103252.959,A,5054.532,N,01135.208,E,038.9,327.5,190618,000.0,W*72
$GPGGA,103253.959,5054.542,N,01135.201,E,1,12,1.0,0.0,M,0.0,M,,*6F
$GPGSA,A,3,01,02,03,04,05,06,07,08,09,10,11,12,1.0,1.0,1.0*30
$GPRMC,103253.959,A,5054.542,N,01135.201,E,038.9,327.5,190618,000.0,W*7D
$GPGGA,103254.959,5054.552,N,01135.195,E,1,12,1.0,0.0,M,0.0,M,,*67
$GPGSA,A,3,01,02,03,04,05,06,07,08,09,10,11,12,1.0,1.0,1.0*30
$GPRMC,103254.959,A,5054.552,N,01135.195,E,038.9,327.5,190618,000.0,W*75
$GPGGA,103255.959,5054.562,N,01135.189,E,1,12,1.0,0.0,M,0.0,M,,*68
$GPGSA,A,3,01,02,03,04,05,06,07,08,09,10,11,12,1.0,1.0,1.0*30
$GPRMC,103255.959,A,5054.562,N,01135.189,E,038.9,339.2,190618,000.0,W*72
$GPGGA,103256.959,5054.573,N,01135.185,E,1,12,1.0,0.0,M,0.0,M,,*67
$GPGSA,A,3,01,02,03,04,05,06,07,08,09,10,11,12,1.0,1.0,1.0*30
$GPRMC,103256.959,A,5054.573,N,01135.185,E,038.9,339.2,190618,000.0,W*7D
$GPGGA,103257.959,5054.583,N,01135.181,E,1,12,1.0,0.0,M,0.0,M,,*6D
$GPGSA,A,3,01,02,03,04,05,06,07,08,09,10,11,12,1.0,1.0,1.0*30
$GPRMC,103257.959,A,5054.583,N,01135.181,E,038.9,339.2,190618,000.0,W*77
$GPGGA,103258.959,5054.594,N,01135.177,E,1,12,1.0,0.0,M,0.0,M,,*6D
$GPGSA,A,3,01,02,03,04,05,06,07,08,09,10,11,12,1.0,1.0,1.0*30
$GPRMC,103258.959,A,5054.594,N,01135.177,E,038.9,339.2,190618,000.0,W*77
$GPGGA,103259.959,5054.604,N,01135.173,E,1,12,1.0,0.0,M,0.0,M,,*62
$GPGSA,A,3,01,02,03,04,05,06,07,08,09,10,11,12,1.0,1.0,1.0*30
$GPRMC,103259.959,A,5054.604,N,01135.173,E,038.9,339.2,190618,000.0,W*78
$GPGGA,103300.959,5054.615,N,01135.169,E,1,12,1.0,0.0,M,0.0,M,,*64
$GPGSA,A,3,01,02,03,04,05,06,07,08,09,10,11,12,1.0,1.0,1.0*30
$GPRMC,103300.959,A,5054.615,N,01135.169,E,038.9,349.9,190618,000.0,W*72
$GPGGA,103301.959,5054.626,N,01135.167,E,1,12,1.0,0.0,M,0.0,M,,*6B
$GPGSA,A,3,01,02,03,04,05,06,07,08,09,10,11,12,1.0,1.0,1.0*30
$GPRMC,103301.959,A,5054.626,N,01135.167,E,038.9,349.9,190618,000.0,W*7D
$GPGGA,103302.959,5054.636,N,01135.165,E,1,12,1.0,0.0,M,0.0,M,,*6B
$GPGSA,A,3,01,02,03,04,05,06,07,08,09,10,11,12,1.0,1.0,1.0*30
$GPRMC,103302.959,A,5054.636,N,01135.165,E,038.9,349.9,190618,000.0,W*7D
$GPGGA,103303.959,5054.647,N,01135.163,E,1,12,1.0,0.0,M,0.0,M,,*6A
$GPGSA,A,3,01,02,03,04,05,06,07,08,09,10,11,12,1.0,1.0,1.0*30
$GPRMC,103303.959,A,5054.647,N,01135.163,E,038.9,349.9,190618,000.0,W*7C
$GPGGA,103304.959,5054.658,N,01135.161,E,1,12,1.0,0.0,M,0.0,M,,*61
$GPGSA,A,3,01,02,03,04,05,06,07,08,09,10,11,12,1.0,1.0,1.0*30
$GPRMC,103304.959,A,5054.658,N,01135.161,E,038.9,349.9,190618,000.0,W*77
$GPGGA,103305.959,5054.668,N,01135.159,E,1,12,1.0,0.0,M,0.0,M,,*68
$GPGSA,A,3,01,02,03,04,05,06,07,08,09,10,11,12,1.0,1.0,1.0*30
$GPRMC,103305.959,A,5054.668,N,01135.159,E,038.9,000.8,190618,000.0,W*71
$GPGGA,103306.959,5054.679,N,01135.159,E,1,12,1.0,0.0,M,0.0,M,,*6B
$GPGSA,A,3,01,02,03,04,05,06,07,08,09,10,11,12,1.0,1.0,1.0*30
$GPRMC,103306.959,A,5054.679,N,01135.159,E,038.9,000.8,190618,000.0,W*72
$GPGGA,103307.959,5054.690,N,01135.159,E,1,12,1.0,0.0,M,0.0,M,,*6D
$GPGSA,A,3,01,02,03,04,05,06,07,08,09,10,11,12,1.0,1.0,1.0*30
$GPRMC,103307.959,A,5054.690,N,01135.159,E,038.9,000.8,190618,000.0,W*74
$GPGGA,103308.959,5054.701,N,01135.159,E,1,12,1.0,0.0,M,0.0,M,,*6B
$GPGSA,A,3,01,02,03,04,05,06,07,08,09,10,11,12,1.0,1.0,1.0*30
$GPRMC,103308.959,A,5054.701,N,01135.159,E,038.9,000.8,190618,000.0,W*72
$GPGGA,103309.959,5054.712,N,01135.160,E,1,12,1.0,0.0,M,0.0,M,,*62
$GPGSA,A,3,01,02,03,04,05,06,07,08,09,10,11,12,1.0,1.0,1.0*30
$GPRMC,103309.959,A,5054.712,N,01135.160,E,038.9,012.7,190618,000.0,W*77
$GPGGA,103310.959,5054.722,N,01135.162,E,1,12,1.0,0.0,M,0.0,M,,*6B
$GPGSA,A,3,01,02,03,04,05,06,07,08,09,10,11,12,1.0,1.0,1.0*30
$GPRMC,103310.959,A,5054.722,N,01135.162,E,038.9,012.7,190618,000.0,W*7E
$GPGGA,103311.959,5054.733,N,01135.164,E,1,12,1.0,0.0,M,0.0,M,,*6C
$GPGSA,A,3,01,02,03,04,05,06,07,08,09,10,11,12,1.0,1.0,1.0*30
$GPRMC,103311.959,A,5054.733,N,01135.164,E,038.9,012.7,190618,000.0,W*79
$GPGGA,103312.959,5054.744,N,01135.167,E,1,12,1.0,0.0,M,0.0,M,,*6C
$GPGSA,A,3,01,02,03,04,05,06,07,08,09,10,11,12,1.0,1.0,1.0*30
$GPRMC,103312.959,A,5054.744,N,01135.167,E,038.9,012.7,190618,000.0,W*79
$GPGGA,103313.959,5054.754,N,01135.169,E,1,12,1.0,0.0,M,0.0,M,,*62
$GPGSA,A,3,01,02,03,04,05,06,07,08,09,10,11,12,1.0,1.0,1.0*30
$GPRMC,103313.959,A,5054.754,N,01135.169,E,038.9,012.7,190618,000.0,W*77
$GPGGA,103314.959,5054.765,N,01135.172,E,1,12,1.0,0.0,M,0.0,M,,*6D
$GPGSA,A,3,01,02,03,04,05,06,07,08,09,10,11,12,1.0,1.0,1.0*30
$GPRMC,103314.959,A,5054.765,N,01135.172,E,038.9,012.7,190618,000.0,W*78
$GPGGA,103315.959,5054.776,N,01135.174,E,1,12,1.0,0.0,M,0.0,M,,*68
$GPGSA,A,3,01,02,03,04,05,06,07,08,09,10,11,12,1.0,1.0,1.0*30
$GPRMC,103315.959,A,5054.776,N,01135.174,E,038.9,019.5,190618,000.0,W*74
$GPGGA,103316.959,5054.786,N,01135.178,E,1,12,1.0,0.0,M,0.0,M,,*68
$GPGSA,A,3,01,02,03,04,05,06,07,08,09,10,11,12,1.0,1.0,1.0*30
$GPRMC,103316.959,A,5054.786,N,01135.178,E,038.9,019.5,190618,000.0,W*74
$GPGGA,103317.959,5054.797,N,01135.182,E,1,12,1.0,0.0,M,0.0,M,,*6C
$GPGSA,A,3,01,02,03,04,05,06,07,08,09,10,11,12,1.0,1.0,1.0*30
$GPRMC,103317.959,A,5054.797,N,01135.182,E,038.9,019.5,190618,000.0,W*70
$GPGGA,103318.959,5054.807,N,01135.185,E,1,12,1.0,0.0,M,0.0,M,,*62
$GPGSA,A,3,01,02,03,04,05,06,07,08,09,10,11,12,1.0,1.0,1.0*30
$GPRMC,103318.959,A,5054.807,N,01135.185,E,038.9,019.5,190618,000.0,W*7E
$GPGGA,103319.959,5054.818,N,01135.189,E,1,12,1.0,0.0,M,0.0,M,,*61
$GPGSA,A,3,01,02,03,04,05,06,07,08,09,10,11,12,1.0,1.0,1.0*30
$GPRMC,103319.959,A,5054.818,N,01135.189,E,038.9,033.6,190618,000.0,W*76
$GPGGA,103320.959,5054.828,N,01135.196,E,1,12,1.0,0.0,M,0.0,M,,*66
$GPGSA,A,3,01,02,03,04,05,06,07,08,09,10,11,12,1.0,1.0,1.0*30
$GPRMC,103320.959,A,5054.828,N,01135.196,E,038.9,033.6,190618,000.0,W*71
$GPGGA,103321.959,5054.838,N,01135.202,E,1,12,1.0,0.0,M,0.0,M,,*68
$GPGSA,A,3,01,02,03,04,05,06,07,08,09,10,11,12,1.0,1.0,1.0*30
$GPRMC,103321.959,A,5054.838,N,01135.202,E,038.9,033.6,190618,000.0,W*7F
$GPGGA,103322.959,5054.848,N,01135.209,E,1,12,1.0,0.0,M,0.0,M,,*67
$GPGSA,A,3,01,02,03,04,05,06,07,08,09,10,11,12,1.0,1.0,1.0*30
$GPRMC,103322.959,A,5054.848,N,01135.209,E,038.9,033.6,190618,000.0,W*70
$GPGGA,103323.959,5054.858,N,01135.216,E,1,12,1.0,0.0,M,0.0,M,,*69
$GPGSA,A,3,01,02,03,04,05,06,07,08,09,10,11,12,1.0,1.0,1.0*30
$GPRMC,103323.959,A,5054.858,N,01135.216,E,038.9,033.6,190618,000.0,W*7E
$GPGGA,103324.959,5054.868,N,01135.222,E,1,12,1.0,0.0,M,0.0,M,,*6A
$GPGSA,A,3,01,02,03,04,05,06,07,08,09,10,11,12,1.0,1.0,1.0*30
$GPRMC,103324.959,A,5054.868,N,01135.222,E,038.9,033.6,190618,000.0,W*7D
$GPGGA,103325.959,5054.877,N,01135.229,E,1,12,1.0,0.0,M,0.0,M,,*6E
$GPGSA,A,3,01,02,03,04,05,06,07,08,09,10,11,12,1.0,1.0,1.0*30
$GPRMC,103325.959,A,5054.877,N,01135.229,E,038.9,033.6,190618,000.0,W*79
$GPGGA,103326.959,5054.887,N,01135.236,E,1,12,1.0,0.0,M,0.0,M,,*6C
$GPGSA,A,3,01,02,03,04,05,06,07,08,09,10,11,12,1.0,1.0,1.0*30
$GPRMC,103326.959,A,5054.887,N,01135.236,E,019.4,034.5,190618,000.0,W*71
$GPGGA,103327.959,5054.892,N,01135.239,E,1,12,1.0,0.0,M,0.0,M,,*66
$GPGSA,A,3,01,02,03,04,05,06,07,08,09,10,11,12,1.0,1.0,1.0*30
$GPRMC,103327.959,A,5054.892,N,01135.239,E,019.4,107.3,190618,000.0,W*7C
$GPGGA,103328.959,5054.890,N,01135.247,E,1,12,1.0,0.0,M,0.0,M,,*62
$GPGSA,A,3,01,02,03,04,05,06,07,08,09,10,11,12,1.0,1.0,1.0*30
$GPRMC,103328.959,A,5054.890,N,01135.247,E,019.4,107.3,190618,000.0,W*78
$GPGGA,103329.959,5054.888,N,01135.254,E,1,12,1.0,0.0,M,0.0,M,,*68
$GPGSA,A,3,01,02,03,04,05,06,07,08,09,10,11,12,1.0,1.0,1.0*30
$GPRMC,103329.959,A,5054.888,N,01135.254,E,019.4,107.3,190618,000.0,W*72
$GPGGA,103330.959,5054.885,N,01135.262,E,1,12,1.0,0.0,M,0.0,M,,*68
$GPGSA,A,3,01,02,03,04,05,06,07,08,09,10,11,12,1.0,1.0,1.0*30
$GPRMC,103330.959,A,5054.885,N,01135.262,E,019.4,107.3,190618,000.0,W*72
$GPGGA,103331.959,5054.883,N,01135.270,E,1,12,1.0,0.0,M,0.0,M,,*6C
$GPGSA,A,3,01,02,03,04,05,06,07,08,09,10,11,12,1.0,1.0,1.0*30
$GPRMC,103331.959,A,5054.883,N,01135.270,E,019.4,107.3,190618,000.0,W*76
$GPGGA,103332.959,5054.880,N,01135.277,E,1,12,1.0,0.0,M,0.0,M,,*6B
$GPGSA,A,3,01,02,03,04,05,06,07,08,09,10,11,12,1.0,1.0,1.0*30
$GPRMC,103332.959,A,5054.880,N,01135.277,E,019.4,107.3,190618,000.0,W*71
$GPGGA,103333.959,5054.878,N,01135.285,E,1,12,1.0,0.0,M,0.0,M,,*60
$GPGSA,A,3,01,02,03,04,05,06,07,08,09,10,11,12,1.0,1.0,1.0*30
$GPRMC,103333.959,A,5054.878,N,01135.285,E,019.4,107.3,190618,000.0,W*7A
$GPGGA,103334.959,5054.876,N,01135.293,E,1,12,1.0,0.0,M,0.0,M,,*6E
$GPGSA,A,3,01,02,03,04,05,06,07,08,09,10,11,12,1.0,1.0,1.0*30
$GPRMC,103334.959,A,5054.876,N,01135.293,E,019.4,107.3,190618,000.0,W*74
$GPGGA,103335.959,5054.873,N,01135.300,E,1,12,1.0,0.0,M,0.0,M,,*61
$GPGSA,A,3,01,02,03,04,05,06,07,08,09,10,11,12,1.0,1.0,1.0*30
$GPRMC,103335.959,A,5054.873,N,01135.300,E,019.4,107.3,190618,000.0,W*7B
$GPGGA,103336.959,5054.871,N,01135.308,E,1,12,1.0,0.0,M,0.0,M,,*68
$GPGSA,A,3,01,02,03,04,05,06,07,08,09,10,11,12,1.0,1.0,1.0*30
$GPRMC,103336.959,A,5054.871,N,01135.308,E,019.4,107.3,190618,000.0,W*72
$GPGGA,103337.959,5054.869,N,01135.316,E,1,12,1.0,0.0,M,0.0,M,,*6F
$GPGSA,A,3,01,02,03,04,05,06,07,08,09,10,11,12,1.0,1.0,1.0*30
$GPRMC,103337.959,A,5054.869,N,01135.316,E,019.4,107.3,190618,000.0,W*75
$GPGGA,103338.959,5054.866,N,01135.323,E,1,12,1.0,0.0,M,0.0,M,,*69
$GPGSA,A,3,01,02,03,04,05,06,07,08,09,10,11,12,1.0,1.0,1.0*30
$GPRMC,103338.959,A,5054.866,N,01135.323,E,019.4,107.3,190618,000.0,W*73
$GPGGA,103339.959,5054.864,N,01135.331,E,1,12,1.0,0.0,M,0.0,M,,*69
$GPGSA,A,3,01,02,03,04,05,06,07,08,09,10,11,12,1.0,1.0,1.0*30
$GPRMC,103339.959,A,5054.864,N,01135.331,E,019.4,107.3,190618,000.0,W*73
$GPGGA,103340.959,5054.861,N,01135.339,E,1,12,1.0,0.0,M,0.0,M,,*6A
$GPGSA,A,3,01,02,03,04,05,06,07,08,09,10,11,12,1.0,1.0,1.0*30
$GPRMC,103340.959,A,5054.861,N,01135.339,E,019.4,173.3,190618,000.0,W*73
$GPGGA,103341.959,5054.856,N,01135.339,E,1,12,1.0,0.0,M,0.0,M,,*6F
$GPGSA,A,3,01,02,03,04,05,06,07,08,09,10,11,12,1.0,1.0,1.0*30
$GPRMC,103341.959,A,5054.856,N,01135.339,E,019.4,173.3,190618,000.0,W*76
$GPGGA,103342.959,5054.851,N,01135.340,E,1,12,1.0,0.0,M,0.0,M,,*65
$GPGSA,A,3,01,02,03,04,05,06,07,08,09,10,11,12,1.0,1.0,1.0*30
$GPRMC,103342.959,A,5054.851,N,01135.340,E,019.4,173.3,190618,000.0,W*7C
$GPGGA,103343.959,5054.845,N,01135.341,E,1,12,1.0,0.0,M,0.0,M,,*60
$GPGSA,A,3,01,02,03,04,05,06,07,08,09,10,11,12,1.0,1.0,1.0*30
$GPRMC,103343.959,A,5054.845,N,01135.341,E,019.4,268.2,190618,000.0,W*71
$GPGGA,103344.959,5054.845,N,01135.332,E,1,12,1.0,0.0,M,0.0,M,,*63
$GPGSA,A,3,01,02,03,04,05,06,07,08,09,10,11,12,1.0,1.0,1.0*30
$GPRMC,103344.959,A,5054.845,N,01135.332,E,019.4,268.2,190618,000.0,W*72
$GPGGA,103345.959,5054.845,N,01135.324,E,1,12,1.0,0.0,M,0.0,M,,*65
$GPGSA,A,3,01,02,03,04,05,06,07,08,09,10,11,12,1.0,1.0,1.0*30
$GPRMC,103345.959,A,5054.845,N,01135.324,E,019.4,268.2,190618,000.0,W*74
$GPGGA,103346.959,5054.845,N,01135.315,E,1,12,1.0,0.0,M,0.0,M,,*64
$GPGSA,A,3,01,02,03,04,05,06,07,08,09,10,11,12,1.0,1.0,1.0*30
$GPRMC,103346.959,A,5054.845,N,01135.315,E,019.4,317.2,190618,000.0,W*7C
$GPGGA,103347.959,5054.849,N,01135.311,E,1,12,1.0,0.0,M,0.0,M,,*6D
$GPGSA,A,3,01,02,03,04,05,06,07,08,09,10,11,12,1.0,1.0,1.0*30
$GPRMC,103347.959,A,5054.849,N,01135.311,E,019.4,317.2,190618,000.0,W*75
$GPGGA,103348.959,5054.854,N,01135.306,E,1,12,1.0,0.0,M,0.0,M,,*68
$GPGSA,A,3,01,02,03,04,05,06,07,08,09,10,11,12,1.0,1.0,1.0*30
$GPRMC,103348.959,A,5054.854,N,01135.306,E,019.4,072.6,190618,000.0,W*74
$GPGGA,103349.959,5054.856,N,01135.314,E,1,12,1.0,0.0,M,0.0,M,,*68
$GPGSA,A,3,01,02,03,04,05,06,07,08,09,10,11,12,1.0,1.0,1.0*30
$GPRMC,103349.959,A,5054.856,N,01135.314,E,019.4,072.6,190618,000.0,W*74
$GPGGA,103350.959,5054.859,N,01135.322,E,1,12,1.0,0.0,M,0.0,M,,*6A
$GPGSA,A,3,01,02,03,04,05,06,07,08,09,10,11,12,1.0,1.0,1.0*30
$GPRMC,103350.959,A,5054.859,N,01135.322,E,019.4,072.6,190618,000.0,W*76
$GPGGA,103351.959,5054.861,N,01135.329,E,1,12,1.0,0.0,M,0.0,M,,*6B
$GPGSA,A,3,01,02,03,04,05,06,07,08,09,10,11,12,1.0,1.0,1.0*30
$GPRMC,103351.959,A,5054.861,N,01135.329,E,019.4,072.6,190618,000.0,W*77
$GPGGA,103352.959,5054.863,N,01135.337,E,1,12,1.0,0.0,M,0.0,M,,*65
$GPGSA,A,3,01,02,03,04,05,06,07,08,09,10,11,12,1.0,1.0,1.0*30
$GPRMC,103352.959,A,5054.863,N,01135.337,E,019.4,287.5,190618,000.0,W*72
$GPGGA,103353.959,5054.866,N,01135.329,E,1,12,1.0,0.0,M,0.0,M,,*6E
$GPGSA,A,3,01,02,03,04,05,06,07,08,09,10,11,12,1.0,1.0,1.0*30
$GPRMC,103353.959,A,5054.866,N,01135.329,E,019.4,287.5,190618,000.0,W*79
$GPGGA,103354.959,5054.868,N,01135.322,E,1,12,1.0,0.0,M,0.0,M,,*6C
$GPGSA,A,3,01,02,03,04,05,06,07,08,09,10,11,12,1.0,1.0,1.0*30
$GPRMC,103354.959,A,5054.868,N,01135.322,E,019.4,287.5,190618,000.0,W*7B
$GPGGA,103355.959,5054.871,N,01135.314,E,1,12,1.0,0.0,M,0.0,M,,*60
$GPGSA,A,3,01,02,03,04,05,06,07,08,09,10,11,12,1.0,1.0,1.0*30
$GPRMC,103355.959,A,5054.871,N,01135.314,E,019.4,287.5,190618,000.0,W*77
$GPGGA,103356.959,5054.873,N,01135.306,E,1,12,1.0,0.0,M,0.0,M,,*62
$GPGSA,A,3,01,02,03,04,05,06,07,08,09,10,11,12,1.0,1.0,1.0*30
$GPRMC,103356.959,A,5054.873,N,01135.306,E,019.4,287.5,190618,000.0,W*75
$GPGGA,103357.959,5054.875,N,01135.299,E,1,12,1.0,0.0,M,0.0,M,,*62
$GPGSA,A,3,01,02,03,04,05,06,07,08,09,10,11,12,1.0,1.0,1.0*30
$GPRMC,103357.959,A,5054.875,N,01135.299,E,019.4,287.5,190618,000.0,W*75
$GPGGA,103358.959,5054.878,N,01135.291,E,1,12,1.0,0.0,M,0.0,M,,*68
$GPGSA,A,3,01,02,03,04,05,06,07,08,09,10,11,12,1.0,1.0,1.0*30
$GPRMC,103358.959,A,5054.878,N,01135.291,E,019.4,287.5,190618,000.0,W*7F
$GPGGA,103359.959,5054.880,N,01135.284,E,1,12,1.0,0.0,M,0.0,M,,*6A
$GPGSA,A,3,01,02,03,04,05,06,07,08,09,10,11,12,1.0,1.0,1.0*30
$GPRMC,103359.959,A,5054.880,N,01135.284,E,019.4,287.5,190618,000.0,W*7D
$GPGGA,103400.959,5054.883,N,01135.276,E,1,12,1.0,0.0,M,0.0,M,,*6F
$GPGSA,A,3,01,02,03,04,05,06,07,08,09,10,11,12,1.0,1.0,1.0*30
$GPRMC,103400.959,A,5054.883,N,01135.276,E,019.4,287.5,190618,000.0,W*78
$GPGGA,103401.959,5054.885,N,01135.268,E,1,12,1.0,0.0,M,0.0,M,,*67
$GPGSA,A,3,01,02,03,04,05,06,07,08,09,10,11,12,1.0,1.0,1.0*30
$GPRMC,103401.959,A,5054.885,N,01135.268,E,019.4,287.5,190618,000.0,W*70
$GPGGA,103402.959,5054.887,N,01135.261,E,1,12,1.0,0.0,M,0.0,M,,*6F
$GPGSA,A,3,01,02,03,04,05,06,07,08,09,10,11,12,1.0,1.0,1.0*30
$GPRMC,103402.959,A,5054.887,N,01135.261,E,019.4,287.5,190618,000.0,W*78
$GPGGA,103403.959,5054.890,N,01135.253,E,1,12,1.0,0.0,M,0.0,M,,*69
$GPGSA,A,3,01,02,03,04,05,06,07,08,09,10,11,12,1.0,1.0,1.0*30
$GPRMC,103403.959,A,5054.890,N,01135.253,E,019.4,287.5,190618,000.0,W*7E
$GPGGA,103404.959,5054.892,N,01135.245,E,1,12,1.0,0.0,M,0.0,M,,*6B
$GPGSA,A,3,01,02,03,04,05,06,07,08,09,10,11,12,1.0,1.0,1.0*30
$GPRMC,103404.959,A,5054.892,N,01135.245,E,019.4,279.1,190618,000.0,W*79
$GPGGA,103405.959,5054.894,N,01135.237,E,1,12,1.0,0.0,M,0.0,M,,*69
$GPGSA,A,3,01,02,03,04,05,06,07,08,09,10,11,12,1.0,1.0,1.0*30
$GPRMC,103405.959,A,5054.894,N,01135.237,E,019.4,279.1,190618,000.0,W*7B
$GPGGA,103406.959,5054.895,N,01135.229,E,1,12,1.0,0.0,M,0.0,M,,*64
$GPGSA,A,3,01,02,03,04,05,06,07,08,09,10,11,12,1.0,1.0,1.0*30
$GPRMC,103406.959,A,5054.895,N,01135.229,E,019.4,287.2,190618,000.0,W*74
$GPGGA,103407.959,5054.897,N,01135.221,E,1,12,1.0,0.0,M,0.0,M,,*6F
$GPGSA,A,3,01,02,03,04,05,06,07,08,09,10,11,12,1.0,1.0,1.0*30
$GPRMC,103407.959,A,5054.897,N,01135.221,E,019.4,287.2,190618,000.0,W*7F
$GPGGA,103408.959,5054.900,N,01135.213,E,1,12,1.0,0.0,M,0.0,M,,*6E
$GPGSA,A,3,01,02,03,04,05,06,07,08,09,10,11,12,1.0,1.0,1.0*30
$GPRMC,103408.959,A,5054.900,N,01135.213,E,019.4,287.2,190618,000.0,W*7E
$GPGGA,103409.959,5054.902,N,01135.206,E,1,12,1.0,0.0,M,0.0,M,,*69
$GPGSA,A,3,01,02,03,04,05,06,07,08,09,10,11,12,1.0,1.0,1.0*30
$GPRMC,103409.959,A,5054.902,N,01135.206,E,019.4,287.2,190618,000.0,W*79
$GPGGA,103410.959,5054.904,N,01135.198,E,1,12,1.0,0.0,M,0.0,M,,*63
$GPGSA,A,3,01,02,03,04,05,06,07,08,09,10,11,12,1.0,1.0,1.0*30
$GPRMC,103410.959,A,5054.904,N,01135.198,E,019.4,287.2,190618,000.0,W*73
$GPGGA,103411.959,5054.907,N,01135.190,E,1,12,1.0,0.0,M,0.0,M,,*69
$GPGSA,A,3,01,02,03,04,05,06,07,08,09,10,11,12,1.0,1.0,1.0*30
$GPRMC,103411.959,A,5054.907,N,01135.190,E,019.4,287.2,190618,000.0,W*79
$GPGGA,103412.959,5054.909,N,01135.182,E,1,12,1.0,0.0,M,0.0,M,,*67
$GPGSA,A,3,01,02,03,04,05,06,07,08,09,10,11,12,1.0,1.0,1.0*30
$GPRMC,103412.959,A,5054.909,N,01135.182,E,019.4,023.5,190618,000.0,W*7C
$GPGGA,103413.959,5054.914,N,01135.185,E,1,12,1.0,0.0,M,0.0,M,,*6D
$GPGSA,A,3,01,02,03,04,05,06,07,08,09,10,11,12,1.0,1.0,1.0*30
$GPRMC,103413.959,A,5054.914,N,01135.185,E,019.4,026.4,190618,000.0,W*72
$GPGGA,103414.959,5054.919,N,01135.187,E,1,12,1.0,0.0,M,0.0,M,,*65
$GPGSA,A,3,01,02,03,04,05,06,07,08,09,10,11,12,1.0,1.0,1.0*30
$GPRMC,103414.959,A,5054.919,N,01135.187,E,019.4,026.4,190618,000.0,W*7A
$GPGGA,103415.959,5054.925,N,01135.190,E,1,12,1.0,0.0,M,0.0,M,,*6D
$GPGSA,A,3,01,02,03,04,05,06,07,08,09,10,11,12,1.0,1.0,1.0*30
$GPRMC,103415.959,A,5054.925,N,01135.190,E,019.4,028.9,190618,000.0,W*71
$GPGGA,103416.959,5054.930,N,01135.193,E,1,12,1.0,0.0,M,0.0,M,,*69
$GPGSA,A,3,01,02,03,04,05,06,07,08,09,10,11,12,1.0,1.0,1.0*30
$GPRMC,103416.959,A,5054.930,N,01135.193,E,019.4,028.9,190618,000.0,W*75
$GPGGA,103417.959,5054.935,N,01135.196,E,1,12,1.0,0.0,M,0.0,M,,*68
$GPGSA,A,3,01,02,03,04,05,06,07,08,09,10,11,12,1.0,1.0,1.0*30
$GPRMC,103417.959,A,5054.935,N,01135.196,E,019.4,028.9,190618,000.0,W*74
$GPGGA,103418.959,5054.940,N,01135.198,E,1,12,1.0,0.0,M,0.0,M,,*6B
$GPGSA,A,3,01,02,03,04,05,06,07,08,09,10,11,12,1.0,1.0,1.0*30
$GPRMC,103418.959,A,5054.940,N,01135.198,E,019.4,028.9,190618,000.0,W*77
$GPGGA,103419.959,5054.945,N,01135.201,E,1,12,1.0,0.0,M,0.0,M,,*6C
$GPGSA,A,3,01,02,03,04,05,06,07,08,09,10,11,12,1.0,1.0,1.0*30
$GPRMC,103419.959,A,5054.945,N,01135.201,E,019.4,028.9,190618,000.0,W*70
$GPGGA,103420.959,5054.950,N,01135.204,E,1,12,1.0,0.0,M,0.0,M,,*67
$GPGSA,A,3,01,02,03,04,05,06,07,08,09,10,11,12,1.0,1.0,1.0*30
$GPRMC,103420.959,A,5054.950,N,01135.204,E,019.4,028.9,190618,000.0,W*7B
$GPGGA,103421.959,5054.955,N,01135.207,E,1,12,1.0,0.0,M,0.0,M,,*60
$GPGSA,A,3,01,02,03,04,05,06,07,08,09,10,11,12,1.0,1.0,1.0*30
$GPRMC,103421.959,A,5054.955,N,01135.207,E,019.4,028.9,190618,000.0,W*7C
$GPGGA,103422.959,5054.960,N,01135.210,E,1,12,1.0,0.0,M,0.0,M,,*63
$GPGSA,A,3,01,02,03,04,05,06,07,08,09,10,11,12,1.0,1.0,1.0*30
$GPRMC,103422.959,A,5054.960,N,01135.210,E,019.4,028.9,190618,000.0,W*7F
$GPGGA,103423.959,5054.965,N,01135.212,E,1,12,1.0,0.0,M,0.0,M,,*65
$GPGSA,A,3,01,02,03,04,05,06,07,08,09,10,11,12,1.0,1.0,1.0*30
$GPRMC,103423.959,A,5054.965,N,01135.212,E,019.4,019.6,190618,000.0,W*74
$GPGGA,103424.959,5054.971,N,01135.214,E,1,12,1.0,0.0,M,0.0,M,,*61
$GPGSA,A,3,01,02,03,04,05,06,07,08,09,10,11,12,1.0,1.0,1.0*30
$GPRMC,103424.959,A,5054.971,N,01135.214,E,019.4,019.6,190618,000.0,W*70
$GPGGA,103425.959,5054.976,N,01135.216,E,1,12,1.0,0.0,M,0.0,M,,*65
$GPGSA,A,3,01,02,03,04,05,06,07,08,09,10,11,12,1.0,1.0,1.0*30
$GPRMC,103425.959,A,5054.976,N,01135.216,E,019.4,019.6,190618,000.0,W*74
$GPGGA,103426.959,5054.981,N,01135.218,E,1,12,1.0,0.0,M,0.0,M,,*60
$GPGSA,A,3,01,02,03,04,05,06,07,08,09,10,11,12,1.0,1.0,1.0*30
$GPRMC,103426.959,A,5054.981,N,01135.218,E,019.4,019.6,190618,000.0,W*71
$GPGGA,103427.959,5054.986,N,01135.220,E,1,12,1.0,0.0,M,0.0,M,,*6D
$GPGSA,A,3,01,02,03,04,05,06,07,08,09,10,11,12,1.0,1.0,1.0*30
$GPRMC,103427.959,A,5054.986,N,01135.220,E,019.4,019.6,190618,000.0,W*7C
$GPGGA,103428.959,5054.992,N,01135.222,E,1,12,1.0,0.0,M,0.0,M,,*65
$GPGSA,A,3,01,02,03,04,05,06,07,08,09,10,11,12,1.0,1.0,1.0*30
$GPRMC,103428.959,A,5054.992,N,01135.222,E,019.4,019.6,190618,000.0,W*74
$GPGGA,103429.959,5054.997,N,01135.224,E,1,12,1.0,0.0,M,0.0,M,,*67
$GPGSA,A,3,01,02,03,04,05,06,07,08,09,10,11,12,1.0,1.0,1.0*30
$GPRMC,103429.959,A,5054.997,N,01135.224,E,019.4,019.6,190618,000.0,W*76
$GPGGA,103430.959,5055.002,N,01135.226,E,1,12,1.0,0.0,M,0.0,M,,*69
$GPGSA,A,3,01,02,03,04,05,06,07,08,09,10,11,12,1.0,1.0,1.0*30
$GPRMC,103430.959,A,5055.002,N,01135.226,E,019.4,007.8,190618,000.0,W*79
$GPGGA,103431.959,5055.008,N,01135.226,E,1,12,1.0,0.0,M,0.0,M,,*62
$GPGSA,A,3,01,02,03,04,05,06,07,08,09,10,11,12,1.0,1.0,1.0*30
$GPRMC,103431.959,A,5055.008,N,01135.226,E,019.4,007.8,190618,000.0,W*72
$GPGGA,103432.959,5055.013,N,01135.227,E,1,12,1.0,0.0,M,0.0,M,,*6A
$GPGSA,A,3,01,02,03,04,05,06,07,08,09,10,11,12,1.0,1.0,1.0*30
$GPRMC,103432.959,A,5055.013,N,01135.227,E,019.4,007.8,190618,000.0,W*7A
$GPGGA,103433.959,5055.018,N,01135.228,E,1,12,1.0,0.0,M,0.0,M,,*6F
$GPGSA,A,3,01,02,03,04,05,06,07,08,09,10,11,12,1.0,1.0,1.0*30
$GPRMC,103433.959,A,5055.018,N,01135.228,E,019.4,007.8,190618,000.0,W*7F
$GPGGA,103434.959,5055.024,N,01135.229,E,1,12,1.0,0.0,M,0.0,M,,*66
$GPGSA,A,3,01,02,03,04,05,06,07,08,09,10,11,12,1.0,1.0,1.0*30
$GPRMC,103434.959,A,5055.024,N,01135.229,E,019.4,007.8,190618,000.0,W*76
$GPGGA,103435.959,5055.029,N,01135.229,E,1,12,1.0,0.0,M,0.0,M,,*6A
$GPGSA,A,3,01,02,03,04,05,06,07,08,09,10,11,12,1.0,1.0,1.0*30
$GPRMC,103435.959,A,5055.029,N,01135.229,E,019.4,270.6,190618,000.0,W*76
$GPGGA,103436.959,5055.029,N,01135.221,E,1,12,1.0,0.0,M,0.0,M,,*61
$GPGSA,A,3,01,02,03,04,05,06,07,08,09,10,11,12,1.0,1.0,1.0*30
$GPRMC,103436.959,A,5055.029,N,01135.221,E,019.4,270.6,190618,000.0,W*7D
$GPGGA,103437.959,5055.029,N,01135.212,E,1,12,1.0,0.0,M,0.0,M,,*60
$GPGSA,A,3,01,02,03,04,05,06,07,08,09,10,11,12,1.0,1.0,1.0*30
$GPRMC,103437.959,A,5055.029,N,01135.212,E,019.4,270.6,190618,000.0,W*7C
$GPGGA,103438.959,5055.029,N,01135.204,E,1,12,1.0,0.0,M,0.0,M,,*68
$GPGSA,A,3,01,02,03,04,05,06,07,08,09,10,11,12,1.0,1.0,1.0*30
$GPRMC,103438.959,A,5055.029,N,01135.204,E,019.4,270.6,190618,000.0,W*74
$GPGGA,103439.959,5055.029,N,01135.195,E,1,12,1.0,0.0,M,0.0,M,,*62
$GPGSA,A,3,01,02,03,04,05,06,07,08,09,10,11,12,1.0,1.0,1.0*30
$GPRMC,103439.959,A,5055.029,N,01135.195,E,019.4,277.5,190618,000.0,W*7A
$GPGGA,103440.959,5055.031,N,01135.187,E,1,12,1.0,0.0,M,0.0,M,,*66
$GPGSA,A,3,01,02,03,04,05,06,07,08,09,10,11,12,1.0,1.0,1.0*30
$GPRMC,103440.959,A,5055.031,N,01135.187,E,019.4,277.5,190618,000.0,W*7E
$GPGGA,103441.959,5055.032,N,01135.178,E,1,12,1.0,0.0,M,0.0,M,,*64
$GPGSA,A,3,01,02,03,04,05,06,07,08,09,10,11,12,1.0,1.0,1.0*30
$GPRMC,103441.959,A,5055.032,N,01135.178,E,019.4,277.5,190618,000.0,W*7C
$GPGGA,103442.959,5055.033,N,01135.170,E,1,12,1.0,0.0,M,0.0,M,,*6E
$GPGSA,A,3,01,02,03,04,05,06,07,08,09,10,11,12,1.0,1.0,1.0*30
$GPRMC,103442.959,A,5055.033,N,01135.170,E,019.4,277.5,190618,000.0,W*76
$GPGGA,103443.959,5055.034,N,01135.162,E,1,12,1.0,0.0,M,0.0,M,,*6B
$GPGSA,A,3,01,02,03,04,05,06,07,08,09,10,11,12,1.0,1.0,1.0*30
$GPRMC,103443.959,A,5055.034,N,01135.162,E,019.4,277.5,190618,000.0,W*73
$GPGGA,103444.959,5055.035,N,01135.153,E,1,12,1.0,0.0,M,0.0,M,,*6F
$GPGSA,A,3,01,02,03,04,05,06,07,08,09,10,11,12,1.0,1.0,1.0*30
$GPRMC,103444.959,A,5055.035,N,01135.153,E,019.4,277.5,190618,000.0,W*77
$GPGGA,103445.959,5055.036,N,01135.145,E,1,12,1.0,0.0,M,0.0,M,,*6A
$GPGSA,A,3,01,02,03,04,05,06,07,08,09,10,11,12,1.0,1.0,1.0*30
$GPRMC,103445.959,A,5055.036,N,01135.145,E,019.4,275.5,190618,000.0,W*70
$GPGGA,103446.959,5055.037,N,01135.136,E,1,12,1.0,0.0,M,0.0,M,,*6C
$GPGSA,A,3,01,02,03,04,05,06,07,08,09,10,11,12,1.0,1.0,1.0*30
$GPRMC,103446.959,A,5055.037,N,01135.136,E,019.4,275.5,190618,000.0,W*76
$GPGGA,103447.959,5055.038,N,01135.128,E,1,12,1.0,0.0,M,0.0,M,,*6D
$GPGSA,A,3,01,02,03,04,05,06,07,08,09,10,11,12,1.0,1.0,1.0*30
$GPRMC,103447.959,A,5055.038,N,01135.128,E,019.4,275.5,190618,000.0,W*77
$GPGGA,103448.959,5055.039,N,01135.119,E,1,12,1.0,0.0,M,0.0,M,,*61
$GPGSA,A,3,01,02,03,04,05,06,07,08,09,10,11,12,1.0,1.0,1.0*30
$GPRMC,103448.959,A,5055.039,N,01135.119,E,019.4,275.5,190618,000.0,W*7B
$GPGGA,103449.959,5055.039,N,01135.111,E,1,12,1.0,0.0,M,0.0,M,,*68
$GPGSA,A,3,01,02,03,04,05,06,07,08,09,10,11,12,1.0,1.0,1.0*30
$GPRMC,103449.959,A,5055.039,N,01135.111,E,019.4,269.4,190618,000.0,W*7E
$GPGGA,103450.959,5055.039,N,01135.102,E,1,12,1.0,0.0,M,0.0,M,,*62
$GPGSA,A,3,01,02,03,04,05,06,07,08,09,10,11,12,1.0,1.0,1.0*30
$GPRMC,103450.959,A,5055.039,N,01135.102,E,019.4,269.4,190618,000.0,W*74
$GPGGA,103451.959,5055.039,N,01135.094,E,1,12,1.0,0.0,M,0.0,M,,*6D
$GPGSA,A,3,01,02,03,04,05,06,07,08,09,10,11,12,1.0,1.0,1.0*30
$GPRMC,103451.959,A,5055.039,N,01135.094,E,019.4,269.4,190618,000.0,W*7B
$GPGGA,103452.959,5055.039,N,01135.085,E,1,12,1.0,0.0,M,0.0,M,,*6E
$GPGSA,A,3,01,02,03,04,05,06,07,08,09,10,11,12,1.0,1.0,1.0*30
$GPRMC,103452.959,A,5055.039,N,01135.085,E,019.4,262.9,190618,000.0,W*7E
$GPGGA,103453.959,5055.038,N,01135.077,E,1,12,1.0,0.0,M,0.0,M,,*63
$GPGSA,A,3,01,02,03,04,05,06,07,08,09,10,11,12,1.0,1.0,1.0*30
$GPRMC,103453.959,A,5055.038,N,01135.077,E,019.4,262.9,190618,000.0,W*73
$GPGGA,103454.959,5055.037,N,01135.068,E,1,12,1.0,0.0,M,0.0,M,,*65
$GPGSA,A,3,01,02,03,04,05,06,07,08,09,10,11,12,1.0,1.0,1.0*30
$GPRMC,103454.959,A,5055.037,N,01135.068,E,019.4,247.9,190618,000.0,W*72
$GPGGA,103455.959,5055.034,N,01135.061,E,1,12,1.0,0.0,M,0.0,M,,*6E
$GPGSA,A,3,01,02,03,04,05,06,07,08,09,10,11,12,1.0,1.0,1.0*30
$GPRMC,103455.959,A,5055.034,N,01135.061,E,019.4,247.9,190618,000.0,W*79
$GPGGA,103456.959,5055.031,N,01135.054,E,1,12,1.0,0.0,M,0.0,M,,*6E
$GPGSA,A,3,01,02,03,04,05,06,07,08,09,10,11,12,1.0,1.0,1.0*30
$GPRMC,103456.959,A,5055.031,N,01135.054,E,019.4,247.9,190618,000.0,W*79
